<?xml version="1.0" standalone="yes"?>
<NewDataSet>
  <xs:schema id="NewDataSet" xmlns="" xmlns:xs="http://www.w3.org/2001/XMLSchema" xmlns:msdata="urn:schemas-microsoft-com:xml-msdata">
    <xs:element name="NewDataSet" msdata:IsDataSet="true" msdata:UseCurrentLocale="true">
      <xs:complexType>
        <xs:choice minOccurs="0" maxOccurs="unbounded">
          <xs:element name="Statistics">
            <xs:complexType>
              <xs:sequence>
                <xs:element name="City" type="xs:string" minOccurs="0" />
                <xs:element name="State" type="xs:string" minOccurs="0" />
                <xs:element name="Industry" type="xs:string" minOccurs="0" />
                <xs:element name="Revenue" type="xs:decimal" minOccurs="0" />
                <xs:element name="Latitude" type="xs:double" minOccurs="0" />
                <xs:element name="Longitude" type="xs:double" minOccurs="0" />
              </xs:sequence>
            </xs:complexType>
          </xs:element>
        </xs:choice>
      </xs:complexType>
    </xs:element>
  </xs:schema>
  <Statistics>
    <City>Miami</City>
    <State>FL</State>
    <Industry>Insurance</Industry>
    <Revenue>95000000.0</Revenue>
    <Latitude>25.661502</Latitude>
    <Longitude>-80.441031</Longitude>
  </Statistics>
  <Statistics>
    <City>Washington</City>
    <State>DC</State>
    <Industry>Real Estate</Industry>
    <Revenue>38400000.0</Revenue>
    <Latitude>38.839473</Latitude>
    <Longitude>-77.014827</Longitude>
  </Statistics>
  <Statistics>
    <City>Mill Valley</City>
    <State>CA</State>
    <Industry>Consumer Products &amp; Services</Industry>
    <Revenue>63500000.0</Revenue>
    <Latitude>37.895757</Latitude>
    <Longitude>-122.533885</Longitude>
  </Statistics>
  <Statistics>
    <City>Sarasota</City>
    <State>FL</State>
    <Industry>Advertising &amp; Marketing</Industry>
    <Revenue>96400000.0</Revenue>
    <Latitude>27.407235</Latitude>
    <Longitude>-82.530299</Longitude>
  </Statistics>
  <Statistics>
    <City>Woburn</City>
    <State>MA</State>
    <Industry>Logistics &amp; Transportation</Industry>
    <Revenue>21400000.0</Revenue>
    <Latitude>42.482894</Latitude>
    <Longitude>-71.157404</Longitude>
  </Statistics>
  <Statistics>
    <City>Tampa</City>
    <State>FL</State>
    <Industry>Insurance</Industry>
    <Revenue>182800000.0</Revenue>
    <Latitude>28.114698</Latitude>
    <Longitude>-82.367751</Longitude>
  </Statistics>
  <Statistics>
    <City>Dallas</City>
    <State>TX</State>
    <Industry>Advertising &amp; Marketing</Industry>
    <Revenue>50700000.0</Revenue>
    <Latitude>33.000458</Latitude>
    <Longitude>-96.83143</Longitude>
  </Statistics>
  <Statistics>
    <City>New York</City>
    <State>NY</State>
    <Industry>Advertising &amp; Marketing</Industry>
    <Revenue>38300000.0</Revenue>
    <Latitude>40.710537</Latitude>
    <Longitude>-74.016323</Longitude>
  </Statistics>
  <Statistics>
    <City>Vienna</City>
    <State>VA</State>
    <Industry>Government Services</Industry>
    <Revenue>20300000.0</Revenue>
    <Latitude>38.928005</Latitude>
    <Longitude>-77.264876</Longitude>
  </Statistics>
  <Statistics>
    <City>Beaverton</City>
    <State>OR</State>
    <Industry>IT Services</Industry>
    <Revenue>47300000.0</Revenue>
    <Latitude>45.475035</Latitude>
    <Longitude>-122.805395</Longitude>
  </Statistics>
  <Statistics>
    <City>San Francisco</City>
    <State>CA</State>
    <Industry>Software</Industry>
    <Revenue>19800000.0</Revenue>
    <Latitude>37.718968</Latitude>
    <Longitude>-122.409577</Longitude>
  </Statistics>
  <Statistics>
    <City>San Diego</City>
    <State>CA</State>
    <Industry>Health</Industry>
    <Revenue>36600000.0</Revenue>
    <Latitude>32.676144</Latitude>
    <Longitude>-117.160335</Longitude>
  </Statistics>
  <Statistics>
    <City>Park City</City>
    <State>UT</State>
    <Industry>Consumer Products &amp; Services</Industry>
    <Revenue>85500000.0</Revenue>
    <Latitude>40.695724</Latitude>
    <Longitude>-111.528021</Longitude>
  </Statistics>
  <Statistics>
    <City>Chanhassen</City>
    <State>MN</State>
    <Industry>Health</Industry>
    <Revenue>31700000.0</Revenue>
    <Latitude>44.867924</Latitude>
    <Longitude>-93.535906</Longitude>
  </Statistics>
  <Statistics>
    <City>San Antonio</City>
    <State>TX</State>
    <Industry>Government Services</Industry>
    <Revenue>13500000.0</Revenue>
    <Latitude>29.173345</Latitude>
    <Longitude>-98.472272</Longitude>
  </Statistics>
  <Statistics>
    <City>Yorktown</City>
    <State>VA</State>
    <Industry>Government Services</Industry>
    <Revenue>12000000.0</Revenue>
    <Latitude>37.228657</Latitude>
    <Longitude>-76.542346</Longitude>
  </Statistics>
  <Statistics>
    <City>Louisville</City>
    <State>KY</State>
    <Industry>Media</Industry>
    <Revenue>22900000.0</Revenue>
    <Latitude>38.268273</Latitude>
    <Longitude>-85.484461</Longitude>
  </Statistics>
  <Statistics>
    <City>Oak Brook</City>
    <State>IL</State>
    <Industry>Software</Industry>
    <Revenue>15600000.0</Revenue>
    <Latitude>41.7891</Latitude>
    <Longitude>-87.940089</Longitude>
  </Statistics>
  <Statistics>
    <City>Austin</City>
    <State>TX</State>
    <Industry>Financial Services</Industry>
    <Revenue>21900000.0</Revenue>
    <Latitude>30.403614</Latitude>
    <Longitude>-97.752602</Longitude>
  </Statistics>
  <Statistics>
    <City>Columbus</City>
    <State>OH</State>
    <Industry>Insurance</Industry>
    <Revenue>11800000.0</Revenue>
    <Latitude>39.923024</Latitude>
    <Longitude>-82.866432</Longitude>
  </Statistics>
  <Statistics>
    <City>Wilmington</City>
    <State>MA</State>
    <Industry>Security</Industry>
    <Revenue>46200000.0</Revenue>
    <Latitude>42.558143</Latitude>
    <Longitude>-71.172306</Longitude>
  </Statistics>
  <Statistics>
    <City>Sunnyvale</City>
    <State>CA</State>
    <Industry>Telecommunications</Industry>
    <Revenue>32900000.0</Revenue>
    <Latitude>37.398255</Latitude>
    <Longitude>-122.000637</Longitude>
  </Statistics>
  <Statistics>
    <City>Toano</City>
    <State>VA</State>
    <Industry>Government Services</Industry>
    <Revenue>11100000.0</Revenue>
    <Latitude>37.39013</Latitude>
    <Longitude>-76.825263</Longitude>
  </Statistics>
  <Statistics>
    <City>Leawood</City>
    <State>KS</State>
    <Industry>Manufacturing</Industry>
    <Revenue>33400000.0</Revenue>
    <Latitude>38.925956</Latitude>
    <Longitude>-94.637991</Longitude>
  </Statistics>
  <Statistics>
    <City>Houston</City>
    <State>TX</State>
    <Industry>Energy</Industry>
    <Revenue>187500000.0</Revenue>
    <Latitude>29.670869</Latitude>
    <Longitude>-95.586613</Longitude>
  </Statistics>
  <Statistics>
    <City>Rockville</City>
    <State>MD</State>
    <Industry>Government Services</Industry>
    <Revenue>28600000.0</Revenue>
    <Latitude>39.088738</Latitude>
    <Longitude>-77.095037</Longitude>
  </Statistics>
  <Statistics>
    <City>Chantilly</City>
    <State>VA</State>
    <Industry>IT Services</Industry>
    <Revenue>8600000.0</Revenue>
    <Latitude>38.884131</Latitude>
    <Longitude>-77.435436</Longitude>
  </Statistics>
  <Statistics>
    <City>Kirkland</City>
    <State>WA</State>
    <Industry>Business Products &amp; Services</Industry>
    <Revenue>13200000.0</Revenue>
    <Latitude>47.718777</Latitude>
    <Longitude>-122.196571</Longitude>
  </Statistics>
  <Statistics>
    <City>Montclair</City>
    <State>NJ</State>
    <Industry>Retail</Industry>
    <Revenue>89400000.0</Revenue>
    <Latitude>40.843023</Latitude>
    <Longitude>-74.201104</Longitude>
  </Statistics>
  <Statistics>
    <City>Manchester</City>
    <State>NH</State>
    <Industry>Food &amp; Beverage</Industry>
    <Revenue>8500000.0</Revenue>
    <Latitude>42.971349</Latitude>
    <Longitude>-71.413474</Longitude>
  </Statistics>
  <Statistics>
    <City>Sugar Land</City>
    <State>TX</State>
    <Industry>Energy</Industry>
    <Revenue>10400000.0</Revenue>
    <Latitude>29.578537</Latitude>
    <Longitude>-95.606591</Longitude>
  </Statistics>
  <Statistics>
    <City>Woodland Hills</City>
    <State>CA</State>
    <Industry>Advertising &amp; Marketing</Industry>
    <Revenue>146800000.0</Revenue>
    <Latitude>34.176689</Latitude>
    <Longitude>-118.615891</Longitude>
  </Statistics>
  <Statistics>
    <City>Palo Alto</City>
    <State>CA</State>
    <Industry>Consumer Products &amp; Services</Industry>
    <Revenue>14500000.0</Revenue>
    <Latitude>37.418009</Latitude>
    <Longitude>-122.127375</Longitude>
  </Statistics>
  <Statistics>
    <City>Redmond</City>
    <State>WA</State>
    <Industry>Business Products &amp; Services</Industry>
    <Revenue>21500000.0</Revenue>
    <Latitude>47.646238</Latitude>
    <Longitude>-122.038578</Longitude>
  </Statistics>
  <Statistics>
    <City>Calexico</City>
    <State>CA</State>
    <Industry>Energy</Industry>
    <Revenue>25900000.0</Revenue>
    <Latitude>32.683227</Latitude>
    <Longitude>-115.502815</Longitude>
  </Statistics>
  <Statistics>
    <City>Martinsburg</City>
    <State>WV</State>
    <Industry>Government Services</Industry>
    <Revenue>22600000.0</Revenue>
    <Latitude>39.459959</Latitude>
    <Longitude>-77.958915</Longitude>
  </Statistics>
  <Statistics>
    <City>Lisle</City>
    <State>IL</State>
    <Industry>Consumer Products &amp; Services</Industry>
    <Revenue>167400000.0</Revenue>
    <Latitude>41.786174</Latitude>
    <Longitude>-88.0879</Longitude>
  </Statistics>
  <Statistics>
    <City>Port Charlotte</City>
    <State>FL</State>
    <Industry>Retail</Industry>
    <Revenue>7500000.0</Revenue>
    <Latitude>26.937925</Latitude>
    <Longitude>-82.238774</Longitude>
  </Statistics>
  <Statistics>
    <City>Chicago</City>
    <State>IL</State>
    <Industry>Logistics &amp; Transportation</Industry>
    <Revenue>202600000.0</Revenue>
    <Latitude>41.881351</Latitude>
    <Longitude>-87.642969</Longitude>
  </Statistics>
  <Statistics>
    <City>Maple Grove</City>
    <State>MN</State>
    <Industry>Construction</Industry>
    <Revenue>5400000.0</Revenue>
    <Latitude>45.108636</Latitude>
    <Longitude>-93.43987</Longitude>
  </Statistics>
  <Statistics>
    <City>Alpharetta</City>
    <State>GA</State>
    <Industry>Business Products &amp; Services</Industry>
    <Revenue>9700000.0</Revenue>
    <Latitude>34.035487</Latitude>
    <Longitude>-84.238972</Longitude>
  </Statistics>
  <Statistics>
    <City>Highlands Ranch</City>
    <State>CO</State>
    <Industry>Software</Industry>
    <Revenue>7800000.0</Revenue>
    <Latitude>39.55134</Latitude>
    <Longitude>-104.963751</Longitude>
  </Statistics>
  <Statistics>
    <City>Denver</City>
    <State>CO</State>
    <Industry>IT Services</Industry>
    <Revenue>13800000.0</Revenue>
    <Latitude>39.778264</Latitude>
    <Longitude>-104.75565</Longitude>
  </Statistics>
  <Statistics>
    <City>Boulder</City>
    <State>CO</State>
    <Industry>Energy</Industry>
    <Revenue>14500000.0</Revenue>
    <Latitude>40.037482</Latitude>
    <Longitude>-105.277073</Longitude>
  </Statistics>
  <Statistics>
    <City>Pocomoke City</City>
    <State>MD</State>
    <Industry>Government Services</Industry>
    <Revenue>124000000.0</Revenue>
    <Latitude>38.071369</Latitude>
    <Longitude>-75.555038</Longitude>
  </Statistics>
  <Statistics>
    <City>Bellevue</City>
    <State>WA</State>
    <Industry>Consumer Products &amp; Services</Industry>
    <Revenue>40100000.0</Revenue>
    <Latitude>47.611468</Latitude>
    <Longitude>-122.116173</Longitude>
  </Statistics>
  <Statistics>
    <City>Santa Monica</City>
    <State>CA</State>
    <Industry>Logistics &amp; Transportation</Industry>
    <Revenue>7200000.0</Revenue>
    <Latitude>34.01001</Latitude>
    <Longitude>-118.471708</Longitude>
  </Statistics>
  <Statistics>
    <City>San Mateo</City>
    <State>CA</State>
    <Industry>Telecommunications</Industry>
    <Revenue>14600000.0</Revenue>
    <Latitude>37.539495</Latitude>
    <Longitude>-122.299796</Longitude>
  </Statistics>
  <Statistics>
    <City>Burbank</City>
    <State>CA</State>
    <Industry>Human Resources</Industry>
    <Revenue>75900000.0</Revenue>
    <Latitude>34.171746</Latitude>
    <Longitude>-118.323148</Longitude>
  </Statistics>
  <Statistics>
    <City>Bethesda</City>
    <State>MD</State>
    <Industry>Health</Industry>
    <Revenue>4800000.0</Revenue>
    <Latitude>38.958485</Latitude>
    <Longitude>-77.11528</Longitude>
  </Statistics>
  <Statistics>
    <City>New Orleans</City>
    <State>LA</State>
    <Industry>Travel</Industry>
    <Revenue>27800000.0</Revenue>
    <Latitude>29.916811</Latitude>
    <Longitude>-89.996033</Longitude>
  </Statistics>
  <Statistics>
    <City>Calverton</City>
    <State>NY</State>
    <Industry>Financial Services</Industry>
    <Revenue>17600000.0</Revenue>
    <Latitude>40.929662</Latitude>
    <Longitude>-72.74229</Longitude>
  </Statistics>
  <Statistics>
    <City>Schaumburg</City>
    <State>IL</State>
    <Industry>Food &amp; Beverage</Industry>
    <Revenue>7800000.0</Revenue>
    <Latitude>42.014432</Latitude>
    <Longitude>-88.093481</Longitude>
  </Statistics>
  <Statistics>
    <City>Kent</City>
    <State>OH</State>
    <Industry>Business Products &amp; Services</Industry>
    <Revenue>4400000.0</Revenue>
    <Latitude>41.14492</Latitude>
    <Longitude>-81.34976</Longitude>
  </Statistics>
  <Statistics>
    <City>Annapolis</City>
    <State>MD</State>
    <Industry>Business Products &amp; Services</Industry>
    <Revenue>10500000.0</Revenue>
    <Latitude>38.952394</Latitude>
    <Longitude>-76.49103</Longitude>
  </Statistics>
  <Statistics>
    <City>Falls Church</City>
    <State>VA</State>
    <Industry>Business Products &amp; Services</Industry>
    <Revenue>6200000.0</Revenue>
    <Latitude>38.88559</Latitude>
    <Longitude>-77.180231</Longitude>
  </Statistics>
  <Statistics>
    <City>Torrance</City>
    <State>CA</State>
    <Industry>Consumer Products &amp; Services</Industry>
    <Revenue>11300000.0</Revenue>
    <Latitude>33.885367</Latitude>
    <Longitude>-118.329543</Longitude>
  </Statistics>
  <Statistics>
    <City>Cary</City>
    <State>NC</State>
    <Industry>Telecommunications</Industry>
    <Revenue>12400000.0</Revenue>
    <Latitude>35.795642</Latitude>
    <Longitude>-78.794061</Longitude>
  </Statistics>
  <Statistics>
    <City>Irvine</City>
    <State>CA</State>
    <Industry>Health</Industry>
    <Revenue>5000000.0</Revenue>
    <Latitude>33.707495</Latitude>
    <Longitude>-117.765533</Longitude>
  </Statistics>
  <Statistics>
    <City>Atlanta</City>
    <State>GA</State>
    <Industry>Health</Industry>
    <Revenue>4600000.0</Revenue>
    <Latitude>33.937772</Latitude>
    <Longitude>-84.271645</Longitude>
  </Statistics>
  <Statistics>
    <City>Seattle</City>
    <State>WA</State>
    <Industry>Consumer Products &amp; Services</Industry>
    <Revenue>5400000.0</Revenue>
    <Latitude>47.648845</Latitude>
    <Longitude>-122.396357</Longitude>
  </Statistics>
  <Statistics>
    <City>Davenport</City>
    <State>IA</State>
    <Industry>Government Services</Industry>
    <Revenue>8600000.0</Revenue>
    <Latitude>41.561822</Latitude>
    <Longitude>-90.540262</Longitude>
  </Statistics>
  <Statistics>
    <City>Oklahoma City</City>
    <State>OK</State>
    <Industry>Government Services</Industry>
    <Revenue>6400000.0</Revenue>
    <Latitude>35.424157</Latitude>
    <Longitude>-97.654729</Longitude>
  </Statistics>
  <Statistics>
    <City>Orange</City>
    <State>CA</State>
    <Industry>Health</Industry>
    <Revenue>15600000.0</Revenue>
    <Latitude>33.791672</Latitude>
    <Longitude>-117.800285</Longitude>
  </Statistics>
  <Statistics>
    <City>Dayton</City>
    <State>OH</State>
    <Industry>Financial Services</Industry>
    <Revenue>27200000.0</Revenue>
    <Latitude>39.674854</Latitude>
    <Longitude>-84.113573</Longitude>
  </Statistics>
  <Statistics>
    <City>Reston</City>
    <State>VA</State>
    <Industry>Government Services</Industry>
    <Revenue>6900000.0</Revenue>
    <Latitude>38.975627</Latitude>
    <Longitude>-77.350757</Longitude>
  </Statistics>
  <Statistics>
    <City>Glen Allen</City>
    <State>VA</State>
    <Industry>Advertising &amp; Marketing</Industry>
    <Revenue>10200000.0</Revenue>
    <Latitude>37.662848</Latitude>
    <Longitude>-77.534016</Longitude>
  </Statistics>
  <Statistics>
    <City>Deerfield</City>
    <State>IL</State>
    <Industry>Business Products &amp; Services</Industry>
    <Revenue>8600000.0</Revenue>
    <Latitude>42.170494</Latitude>
    <Longitude>-87.859033</Longitude>
  </Statistics>
  <Statistics>
    <City>Los Angeles</City>
    <State>CA</State>
    <Industry>Media</Industry>
    <Revenue>77300000.0</Revenue>
    <Latitude>34.111245</Latitude>
    <Longitude>-118.450155</Longitude>
  </Statistics>
  <Statistics>
    <City>Bedford</City>
    <State>NH</State>
    <Industry>Human Resources</Industry>
    <Revenue>4300000.0</Revenue>
    <Latitude>42.940307</Latitude>
    <Longitude>-71.52127</Longitude>
  </Statistics>
  <Statistics>
    <City>Lawrence</City>
    <State>MA</State>
    <Industry>Health</Industry>
    <Revenue>4700000.0</Revenue>
    <Latitude>42.691053</Latitude>
    <Longitude>-71.160506</Longitude>
  </Statistics>
  <Statistics>
    <City>Richland</City>
    <State>WA</State>
    <Industry>Engineering</Industry>
    <Revenue>13600000.0</Revenue>
    <Latitude>46.283265</Latitude>
    <Longitude>-119.289201</Longitude>
  </Statistics>
  <Statistics>
    <City>Milwaukee</City>
    <State>WI</State>
    <Industry>Advertising &amp; Marketing</Industry>
    <Revenue>4500000.0</Revenue>
    <Latitude>43.040738</Latitude>
    <Longitude>-87.93566</Longitude>
  </Statistics>
  <Statistics>
    <City>Scotts Valley</City>
    <State>CA</State>
    <Industry>Manufacturing</Industry>
    <Revenue>5200000.0</Revenue>
    <Latitude>37.057841</Latitude>
    <Longitude>-122.014961</Longitude>
  </Statistics>
  <Statistics>
    <City>Fairfax</City>
    <State>VA</State>
    <Industry>Government Services</Industry>
    <Revenue>7000000.0</Revenue>
    <Latitude>38.877627</Latitude>
    <Longitude>-77.388451</Longitude>
  </Statistics>
  <Statistics>
    <City>Concord</City>
    <State>NC</State>
    <Industry>Retail</Industry>
    <Revenue>7600000.0</Revenue>
    <Latitude>35.414115</Latitude>
    <Longitude>-80.616227</Longitude>
  </Statistics>
  <Statistics>
    <City>Capistrano Beach</City>
    <State>CA</State>
    <Industry>Business Products &amp; Services</Industry>
    <Revenue>9900000.0</Revenue>
    <Latitude>33.459115</Latitude>
    <Longitude>-117.662657</Longitude>
  </Statistics>
  <Statistics>
    <City>Calabasas</City>
    <State>CA</State>
    <Industry>Financial Services</Industry>
    <Revenue>5000000.0</Revenue>
    <Latitude>34.141854</Latitude>
    <Longitude>-118.664103</Longitude>
  </Statistics>
  <Statistics>
    <City>Traverse City</City>
    <State>MI</State>
    <Industry>Retail</Industry>
    <Revenue>3700000.0</Revenue>
    <Latitude>44.74365</Latitude>
    <Longitude>-85.618869</Longitude>
  </Statistics>
  <Statistics>
    <City>Round Rock</City>
    <State>TX</State>
    <Industry>Retail</Industry>
    <Revenue>5700000.0</Revenue>
    <Latitude>30.508431</Latitude>
    <Longitude>-97.706171</Longitude>
  </Statistics>
  <Statistics>
    <City>The Woodlands</City>
    <State>TX</State>
    <Industry>Health</Industry>
    <Revenue>21400000.0</Revenue>
    <Latitude>30.168887</Latitude>
    <Longitude>-95.500743</Longitude>
  </Statistics>
  <Statistics>
    <City>Tulsa</City>
    <State>OK</State>
    <Industry>Energy</Industry>
    <Revenue>81500000.0</Revenue>
    <Latitude>36.109293</Latitude>
    <Longitude>-95.85061</Longitude>
  </Statistics>
  <Statistics>
    <City>Baltimore</City>
    <State>MD</State>
    <Industry>Government Services</Industry>
    <Revenue>12800000.0</Revenue>
    <Latitude>39.17185</Latitude>
    <Longitude>-76.648287</Longitude>
  </Statistics>
  <Statistics>
    <City>Newport News</City>
    <State>VA</State>
    <Industry>Government Services</Industry>
    <Revenue>12400000.0</Revenue>
    <Latitude>36.986352</Latitude>
    <Longitude>-76.416469</Longitude>
  </Statistics>
  <Statistics>
    <City>Fort Worth</City>
    <State>TX</State>
    <Industry>Real Estate</Industry>
    <Revenue>5800000.0</Revenue>
    <Latitude>32.901017</Latitude>
    <Longitude>-97.332671</Longitude>
  </Statistics>
  <Statistics>
    <City>Phoenix</City>
    <State>AZ</State>
    <Industry>Human Resources</Industry>
    <Revenue>19700000.0</Revenue>
    <Latitude>33.559113</Latitude>
    <Longitude>-112.133168</Longitude>
  </Statistics>
  <Statistics>
    <City>Sharon</City>
    <State>MA</State>
    <Industry>Consumer Products &amp; Services</Industry>
    <Revenue>4900000.0</Revenue>
    <Latitude>42.109388</Latitude>
    <Longitude>-71.175872</Longitude>
  </Statistics>
  <Statistics>
    <City>Cincinnati</City>
    <State>OH</State>
    <Industry>Logistics &amp; Transportation</Industry>
    <Revenue>93900000.0</Revenue>
    <Latitude>39.266803</Latitude>
    <Longitude>-84.62832</Longitude>
  </Statistics>
  <Statistics>
    <City>Provo</City>
    <State>UT</State>
    <Industry>Consumer Products &amp; Services</Industry>
    <Revenue>8500000.0</Revenue>
    <Latitude>40.234675</Latitude>
    <Longitude>-111.644724</Longitude>
  </Statistics>
  <Statistics>
    <City>Eagleville</City>
    <State>PA</State>
    <Industry>Government Services</Industry>
    <Revenue>5500000.0</Revenue>
    <Latitude>40.14335</Latitude>
    <Longitude>-75.384672</Longitude>
  </Statistics>
  <Statistics>
    <City>Brighton</City>
    <State>MI</State>
    <Industry>IT Services</Industry>
    <Revenue>5300000.0</Revenue>
    <Latitude>42.537069</Latitude>
    <Longitude>-83.775628</Longitude>
  </Statistics>
  <Statistics>
    <City>Getzville</City>
    <State>NY</State>
    <Industry>Energy</Industry>
    <Revenue>56400000.0</Revenue>
    <Latitude>43.023989</Latitude>
    <Longitude>-78.753184</Longitude>
  </Statistics>
  <Statistics>
    <City>Santa Clara</City>
    <State>CA</State>
    <Industry>Advertising &amp; Marketing</Industry>
    <Revenue>7600000.0</Revenue>
    <Latitude>37.394673</Latitude>
    <Longitude>-121.95394</Longitude>
  </Statistics>
  <Statistics>
    <City>Bend</City>
    <State>OR</State>
    <Industry>Advertising &amp; Marketing</Industry>
    <Revenue>3400000.0</Revenue>
    <Latitude>44.022332</Latitude>
    <Longitude>-121.298543</Longitude>
  </Statistics>
  <Statistics>
    <City>Northbrook</City>
    <State>IL</State>
    <Industry>IT Services</Industry>
    <Revenue>9500000.0</Revenue>
    <Latitude>42.125443</Latitude>
    <Longitude>-87.846535</Longitude>
  </Statistics>
  <Statistics>
    <City>Newark</City>
    <State>CA</State>
    <Industry>IT Services</Industry>
    <Revenue>4600000.0</Revenue>
    <Latitude>37.536812</Latitude>
    <Longitude>-122.031956</Longitude>
  </Statistics>
  <Statistics>
    <City>Centreville</City>
    <State>VA</State>
    <Industry>Government Services</Industry>
    <Revenue>5600000.0</Revenue>
    <Latitude>38.841805</Latitude>
    <Longitude>-77.451175</Longitude>
  </Statistics>
  <Statistics>
    <City>Suwanee</City>
    <State>GA</State>
    <Industry>Government Services</Industry>
    <Revenue>21900000.0</Revenue>
    <Latitude>34.057245</Latitude>
    <Longitude>-84.082391</Longitude>
  </Statistics>
  <Statistics>
    <City>Westbury</City>
    <State>NY</State>
    <Industry>Advertising &amp; Marketing</Industry>
    <Revenue>58600000.0</Revenue>
    <Latitude>40.755749</Latitude>
    <Longitude>-73.57226</Longitude>
  </Statistics>
  <Statistics>
    <City>Riverside</City>
    <State>CA</State>
    <Industry>Manufacturing</Industry>
    <Revenue>14400000.0</Revenue>
    <Latitude>33.889676</Latitude>
    <Longitude>-117.304264</Longitude>
  </Statistics>
  <Statistics>
    <City>Salt Lake City</City>
    <State>UT</State>
    <Industry>Consumer Products &amp; Services</Industry>
    <Revenue>32900000.0</Revenue>
    <Latitude>40.785697</Latitude>
    <Longitude>-111.929054</Longitude>
  </Statistics>
  <Statistics>
    <City>Richardson</City>
    <State>TX</State>
    <Industry>Health</Industry>
    <Revenue>16600000.0</Revenue>
    <Latitude>32.986461</Latitude>
    <Longitude>-96.685957</Longitude>
  </Statistics>
  <Statistics>
    <City>Burlington</City>
    <State>MA</State>
    <Industry>Software</Industry>
    <Revenue>14600000.0</Revenue>
    <Latitude>42.508942</Latitude>
    <Longitude>-71.200437</Longitude>
  </Statistics>
  <Statistics>
    <City>Philadelphia</City>
    <State>PA</State>
    <Industry>Consumer Products &amp; Services</Industry>
    <Revenue>29100000.0</Revenue>
    <Latitude>40.089738</Latitude>
    <Longitude>-74.978052</Longitude>
  </Statistics>
  <Statistics>
    <City>Taunton</City>
    <State>MA</State>
    <Industry>Construction</Industry>
    <Revenue>32400000.0</Revenue>
    <Latitude>41.905007</Latitude>
    <Longitude>-71.10261</Longitude>
  </Statistics>
  <Statistics>
    <City>Englewood Cliffs</City>
    <State>NJ</State>
    <Industry>Health</Industry>
    <Revenue>5400000.0</Revenue>
    <Latitude>40.882043</Latitude>
    <Longitude>-73.954449</Longitude>
  </Statistics>
  <Statistics>
    <City>Cambridge</City>
    <State>MA</State>
    <Industry>Insurance</Industry>
    <Revenue>207700000.0</Revenue>
    <Latitude>42.364005</Latitude>
    <Longitude>-71.141879</Longitude>
  </Statistics>
  <Statistics>
    <City>Orem</City>
    <State>UT</State>
    <Industry>Software</Industry>
    <Revenue>15500000.0</Revenue>
    <Latitude>40.313407</Latitude>
    <Longitude>-111.695293</Longitude>
  </Statistics>
  <Statistics>
    <City>Mesa</City>
    <State>AZ</State>
    <Industry>Construction</Industry>
    <Revenue>26700000.0</Revenue>
    <Latitude>33.436688</Latitude>
    <Longitude>-111.773114</Longitude>
  </Statistics>
  <Statistics>
    <City>Arlington</City>
    <State>VA</State>
    <Industry>Government Services</Industry>
    <Revenue>4800000.0</Revenue>
    <Latitude>38.895375</Latitude>
    <Longitude>-77.163295</Longitude>
  </Statistics>
  <Statistics>
    <City>Newhall</City>
    <State>CA</State>
    <Industry>IT Services</Industry>
    <Revenue>2400000.0</Revenue>
    <Latitude>34.381067</Latitude>
    <Longitude>-118.582134</Longitude>
  </Statistics>
  <Statistics>
    <City>Draper</City>
    <State>UT</State>
    <Industry>Advertising &amp; Marketing</Industry>
    <Revenue>41300000.0</Revenue>
    <Latitude>40.504599</Latitude>
    <Longitude>-111.88096</Longitude>
  </Statistics>
  <Statistics>
    <City>Temecula</City>
    <State>CA</State>
    <Industry>Business Products &amp; Services</Industry>
    <Revenue>15800000.0</Revenue>
    <Latitude>33.498314</Latitude>
    <Longitude>-117.095774</Longitude>
  </Statistics>
  <Statistics>
    <City>Island Park</City>
    <State>NY</State>
    <Industry>Business Products &amp; Services</Industry>
    <Revenue>2800000.0</Revenue>
    <Latitude>40.604044</Latitude>
    <Longitude>-73.655411</Longitude>
  </Statistics>
  <Statistics>
    <City>Foster City</City>
    <State>CA</State>
    <Industry>IT Services</Industry>
    <Revenue>4000000.0</Revenue>
    <Latitude>37.551614</Latitude>
    <Longitude>-122.263577</Longitude>
  </Statistics>
  <Statistics>
    <City>Durham</City>
    <State>NC</State>
    <Industry>Advertising &amp; Marketing</Industry>
    <Revenue>15100000.0</Revenue>
    <Latitude>36.091779</Latitude>
    <Longitude>-78.929919</Longitude>
  </Statistics>
  <Statistics>
    <City>Portland</City>
    <State>OR</State>
    <Industry>Construction</Industry>
    <Revenue>25200000.0</Revenue>
    <Latitude>45.476207</Latitude>
    <Longitude>-122.559607</Longitude>
  </Statistics>
  <Statistics>
    <City>Silver Spring</City>
    <State>MD</State>
    <Industry>IT Services</Industry>
    <Revenue>10400000.0</Revenue>
    <Latitude>38.998198</Latitude>
    <Longitude>-77.033776</Longitude>
  </Statistics>
  <Statistics>
    <City>Las Vegas</City>
    <State>NV</State>
    <Industry>Real Estate</Industry>
    <Revenue>1100000000.0</Revenue>
    <Latitude>36.209234</Latitude>
    <Longitude>-115.294123</Longitude>
  </Statistics>
  <Statistics>
    <City>Cerritos</City>
    <State>CA</State>
    <Industry>IT Services</Industry>
    <Revenue>8800000.0</Revenue>
    <Latitude>33.866568</Latitude>
    <Longitude>-118.068046</Longitude>
  </Statistics>
  <Statistics>
    <City>Woodinville</City>
    <State>WA</State>
    <Industry>Consumer Products &amp; Services</Industry>
    <Revenue>4500000.0</Revenue>
    <Latitude>47.768384</Latitude>
    <Longitude>-122.127087</Longitude>
  </Statistics>
  <Statistics>
    <City>Rancho Cucamonga</City>
    <State>CA</State>
    <Industry>Retail</Industry>
    <Revenue>39700000.0</Revenue>
    <Latitude>34.107039</Latitude>
    <Longitude>-117.59408</Longitude>
  </Statistics>
  <Statistics>
    <City>Clearwater</City>
    <State>FL</State>
    <Industry>Software</Industry>
    <Revenue>3800000.0</Revenue>
    <Latitude>27.984526</Latitude>
    <Longitude>-82.822281</Longitude>
  </Statistics>
  <Statistics>
    <City>Chandler</City>
    <State>AZ</State>
    <Industry>Consumer Products &amp; Services</Industry>
    <Revenue>7600000.0</Revenue>
    <Latitude>33.241384</Latitude>
    <Longitude>-111.774486</Longitude>
  </Statistics>
  <Statistics>
    <City>Wilton</City>
    <State>CT</State>
    <Industry>Energy</Industry>
    <Revenue>35600000.0</Revenue>
    <Latitude>41.201761</Latitude>
    <Longitude>-73.438323</Longitude>
  </Statistics>
  <Statistics>
    <City>Princeton</City>
    <State>NJ</State>
    <Industry>Food &amp; Beverage</Industry>
    <Revenue>55500000.0</Revenue>
    <Latitude>40.353545</Latitude>
    <Longitude>-74.659378</Longitude>
  </Statistics>
  <Statistics>
    <City>Boca Raton</City>
    <State>FL</State>
    <Industry>Media</Industry>
    <Revenue>331000000.0</Revenue>
    <Latitude>26.390693</Latitude>
    <Longitude>-80.216087</Longitude>
  </Statistics>
  <Statistics>
    <City>Minneapolis</City>
    <State>MN</State>
    <Industry>Software</Industry>
    <Revenue>4500000.0</Revenue>
    <Latitude>44.981562</Latitude>
    <Longitude>-93.23928</Longitude>
  </Statistics>
  <Statistics>
    <City>Stamford</City>
    <State>CT</State>
    <Industry>IT Services</Industry>
    <Revenue>2100000.0</Revenue>
    <Latitude>41.094206</Latitude>
    <Longitude>-73.520297</Longitude>
  </Statistics>
  <Statistics>
    <City>Englewood</City>
    <State>CO</State>
    <Industry>IT Services</Industry>
    <Revenue>10200000.0</Revenue>
    <Latitude>39.58051</Latitude>
    <Longitude>-104.901115</Longitude>
  </Statistics>
  <Statistics>
    <City>Gaithersburg</City>
    <State>MD</State>
    <Industry>Education</Industry>
    <Revenue>2500000.0</Revenue>
    <Latitude>39.14187</Latitude>
    <Longitude>-77.188993</Longitude>
  </Statistics>
  <Statistics>
    <City>Gurnee</City>
    <State>IL</State>
    <Industry>Health</Industry>
    <Revenue>24400000.0</Revenue>
    <Latitude>42.366906</Latitude>
    <Longitude>-87.945232</Longitude>
  </Statistics>
  <Statistics>
    <City>Wayne</City>
    <State>NE</State>
    <Industry>Consumer Products &amp; Services</Industry>
    <Revenue>3400000.0</Revenue>
    <Latitude>42.230439</Latitude>
    <Longitude>-97.018579</Longitude>
  </Statistics>
  <Statistics>
    <City>Salisbury</City>
    <State>MD</State>
    <Industry>Travel</Industry>
    <Revenue>3700000.0</Revenue>
    <Latitude>38.362996</Latitude>
    <Longitude>-75.592238</Longitude>
  </Statistics>
  <Statistics>
    <City>Vancouver</City>
    <State>WA</State>
    <Industry>Health</Industry>
    <Revenue>6100000.0</Revenue>
    <Latitude>45.712017</Latitude>
    <Longitude>-122.632226</Longitude>
  </Statistics>
  <Statistics>
    <City>Columbia</City>
    <State>MO</State>
    <Industry>Advertising &amp; Marketing</Industry>
    <Revenue>3200000.0</Revenue>
    <Latitude>38.93482</Latitude>
    <Longitude>-92.363865</Longitude>
  </Statistics>
  <Statistics>
    <City>Pompano Beach</City>
    <State>FL</State>
    <Industry>Construction</Industry>
    <Revenue>2400000.0</Revenue>
    <Latitude>26.291902</Latitude>
    <Longitude>-80.248086</Longitude>
  </Statistics>
  <Statistics>
    <City>Minnetonka</City>
    <State>MN</State>
    <Industry>Software</Industry>
    <Revenue>3400000.0</Revenue>
    <Latitude>44.913808</Latitude>
    <Longitude>-93.484997</Longitude>
  </Statistics>
  <Statistics>
    <City>Dublin</City>
    <State>OH</State>
    <Industry>IT Services</Industry>
    <Revenue>12300000.0</Revenue>
    <Latitude>40.109297</Latitude>
    <Longitude>-83.114633</Longitude>
  </Statistics>
  <Statistics>
    <City>Joliet</City>
    <State>IL</State>
    <Industry>Retail</Industry>
    <Revenue>2700000.0</Revenue>
    <Latitude>41.511873</Latitude>
    <Longitude>-88.05687</Longitude>
  </Statistics>
  <Statistics>
    <City>Plantation</City>
    <State>FL</State>
    <Industry>Business Products &amp; Services</Industry>
    <Revenue>2600000.0</Revenue>
    <Latitude>26.113639</Latitude>
    <Longitude>-80.271019</Longitude>
  </Statistics>
  <Statistics>
    <City>Dublin</City>
    <State>CA</State>
    <Industry>Consumer Products &amp; Services</Industry>
    <Revenue>157000000.0</Revenue>
    <Latitude>37.716597</Latitude>
    <Longitude>-121.922589</Longitude>
  </Statistics>
  <Statistics>
    <City>Swartz Creek</City>
    <State>MI</State>
    <Industry>Health</Industry>
    <Revenue>270700000.0</Revenue>
    <Latitude>42.946776</Latitude>
    <Longitude>-83.817005</Longitude>
  </Statistics>
  <Statistics>
    <City>Weymouth</City>
    <State>MA</State>
    <Industry>Retail</Industry>
    <Revenue>3000000.0</Revenue>
    <Latitude>42.243564</Latitude>
    <Longitude>-70.944318</Longitude>
  </Statistics>
  <Statistics>
    <City>Acton</City>
    <State>MA</State>
    <Industry>Security</Industry>
    <Revenue>7800000.0</Revenue>
    <Latitude>42.475076</Latitude>
    <Longitude>-71.448255</Longitude>
  </Statistics>
  <Statistics>
    <City>Richmond</City>
    <State>VA</State>
    <Industry>Business Products &amp; Services</Industry>
    <Revenue>7500000.0</Revenue>
    <Latitude>37.632923</Latitude>
    <Longitude>-77.545125</Longitude>
  </Statistics>
  <Statistics>
    <City>Jacksonville</City>
    <State>FL</State>
    <Industry>Business Products &amp; Services</Industry>
    <Revenue>13600000.0</Revenue>
    <Latitude>30.095578</Latitude>
    <Longitude>-81.621701</Longitude>
  </Statistics>
  <Statistics>
    <City>North Canton</City>
    <State>OH</State>
    <Industry>Security</Industry>
    <Revenue>6000000.0</Revenue>
    <Latitude>40.889919</Latitude>
    <Longitude>-81.413464</Longitude>
  </Statistics>
  <Statistics>
    <City>American Fork</City>
    <State>UT</State>
    <Industry>Software</Industry>
    <Revenue>2800000.0</Revenue>
    <Latitude>40.392784</Latitude>
    <Longitude>-111.794107</Longitude>
  </Statistics>
  <Statistics>
    <City>Albuquerque</City>
    <State>NM</State>
    <Industry>Energy</Industry>
    <Revenue>2000000.0</Revenue>
    <Latitude>35.07166</Latitude>
    <Longitude>-106.509003</Longitude>
  </Statistics>
  <Statistics>
    <City>Simi Valley</City>
    <State>CA</State>
    <Industry>Software</Industry>
    <Revenue>15800000.0</Revenue>
    <Latitude>34.265589</Latitude>
    <Longitude>-118.765349</Longitude>
  </Statistics>
  <Statistics>
    <City>Walpole</City>
    <State>MA</State>
    <Industry>Government Services</Industry>
    <Revenue>5300000.0</Revenue>
    <Latitude>42.144413</Latitude>
    <Longitude>-71.254391</Longitude>
  </Statistics>
  <Statistics>
    <City>Morrisville</City>
    <State>NC</State>
    <Industry>Government Services</Industry>
    <Revenue>93700000.0</Revenue>
    <Latitude>35.834371</Latitude>
    <Longitude>-78.846594</Longitude>
  </Statistics>
  <Statistics>
    <City>Orlando</City>
    <State>FL</State>
    <Industry>Construction</Industry>
    <Revenue>2000000.0</Revenue>
    <Latitude>28.487102</Latitude>
    <Longitude>-81.408162</Longitude>
  </Statistics>
  <Statistics>
    <City>Brea</City>
    <State>CA</State>
    <Industry>IT Services</Industry>
    <Revenue>6500000.0</Revenue>
    <Latitude>33.922897</Latitude>
    <Longitude>-117.886742</Longitude>
  </Statistics>
  <Statistics>
    <City>Huntsville</City>
    <State>AL</State>
    <Industry>Telecommunications</Industry>
    <Revenue>3000000.0</Revenue>
    <Latitude>34.658321</Latitude>
    <Longitude>-86.729486</Longitude>
  </Statistics>
  <Statistics>
    <City>Clayton</City>
    <State>NC</State>
    <Industry>Advertising &amp; Marketing</Industry>
    <Revenue>13200000.0</Revenue>
    <Latitude>35.63484</Latitude>
    <Longitude>-78.451013</Longitude>
  </Statistics>
  <Statistics>
    <City>Milford</City>
    <State>CT</State>
    <Industry>Telecommunications</Industry>
    <Revenue>2900000.0</Revenue>
    <Latitude>41.217466</Latitude>
    <Longitude>-73.054948</Longitude>
  </Statistics>
  <Statistics>
    <City>Parker</City>
    <State>CO</State>
    <Industry>Consumer Products &amp; Services</Industry>
    <Revenue>4600000.0</Revenue>
    <Latitude>39.505466</Latitude>
    <Longitude>-104.734904</Longitude>
  </Statistics>
  <Statistics>
    <City>Norcross</City>
    <State>GA</State>
    <Industry>Health</Industry>
    <Revenue>4600000.0</Revenue>
    <Latitude>33.905964</Latitude>
    <Longitude>-84.183953</Longitude>
  </Statistics>
  <Statistics>
    <City>Rochester</City>
    <State>NY</State>
    <Industry>Telecommunications</Industry>
    <Revenue>45700000.0</Revenue>
    <Latitude>43.21257</Latitude>
    <Longitude>-77.703996</Longitude>
  </Statistics>
  <Statistics>
    <City>Evanston</City>
    <State>IL</State>
    <Industry>Financial Services</Industry>
    <Revenue>4300000.0</Revenue>
    <Latitude>42.048487</Latitude>
    <Longitude>-87.71759</Longitude>
  </Statistics>
  <Statistics>
    <City>Alexandria</City>
    <State>VA</State>
    <Industry>Government Services</Industry>
    <Revenue>6300000.0</Revenue>
    <Latitude>38.806018</Latitude>
    <Longitude>-77.052867</Longitude>
  </Statistics>
  <Statistics>
    <City>Spring</City>
    <State>TX</State>
    <Industry>Energy</Industry>
    <Revenue>114200000.0</Revenue>
    <Latitude>30.104398</Latitude>
    <Longitude>-95.506624</Longitude>
  </Statistics>
  <Statistics>
    <City>Bethany Beach</City>
    <State>DE</State>
    <Industry>Food &amp; Beverage</Industry>
    <Revenue>7000000.0</Revenue>
    <Latitude>38.531009</Latitude>
    <Longitude>-75.067396</Longitude>
  </Statistics>
  <Statistics>
    <City>Bedford</City>
    <State>MA</State>
    <Industry>Government Services</Industry>
    <Revenue>47900000.0</Revenue>
    <Latitude>42.484287</Latitude>
    <Longitude>-71.276796</Longitude>
  </Statistics>
  <Statistics>
    <City>Topeka</City>
    <State>KS</State>
    <Industry>Construction</Industry>
    <Revenue>2000000.0</Revenue>
    <Latitude>39.132853</Latitude>
    <Longitude>-95.70231</Longitude>
  </Statistics>
  <Statistics>
    <City>Trenton</City>
    <State>NJ</State>
    <Industry>Consumer Products &amp; Services</Industry>
    <Revenue>4200000.0</Revenue>
    <Latitude>40.251006</Latitude>
    <Longitude>-74.762699</Longitude>
  </Statistics>
  <Statistics>
    <City>Bothell</City>
    <State>WA</State>
    <Industry>Software</Industry>
    <Revenue>8700000.0</Revenue>
    <Latitude>47.791806</Latitude>
    <Longitude>-122.224339</Longitude>
  </Statistics>
  <Statistics>
    <City>San Jose</City>
    <State>CA</State>
    <Industry>Business Products &amp; Services</Industry>
    <Revenue>3900000.0</Revenue>
    <Latitude>37.329765</Latitude>
    <Longitude>-121.792111</Longitude>
  </Statistics>
  <Statistics>
    <City>Boston</City>
    <State>MA</State>
    <Industry>Security</Industry>
    <Revenue>8600000.0</Revenue>
    <Latitude>42.347088</Latitude>
    <Longitude>-71.102689</Longitude>
  </Statistics>
  <Statistics>
    <City>Plano</City>
    <State>TX</State>
    <Industry>Telecommunications</Industry>
    <Revenue>144200000.0</Revenue>
    <Latitude>33.029866</Latitude>
    <Longitude>-96.788903</Longitude>
  </Statistics>
  <Statistics>
    <City>Columbia</City>
    <State>MD</State>
    <Industry>Software</Industry>
    <Revenue>5300000.0</Revenue>
    <Latitude>39.170236</Latitude>
    <Longitude>-76.853796</Longitude>
  </Statistics>
  <Statistics>
    <City>Greenbelt</City>
    <State>MD</State>
    <Industry>Government Services</Industry>
    <Revenue>19400000.0</Revenue>
    <Latitude>38.999559</Latitude>
    <Longitude>-76.883964</Longitude>
  </Statistics>
  <Statistics>
    <City>Raleigh</City>
    <State>NC</State>
    <Industry>Security</Industry>
    <Revenue>9600000.0</Revenue>
    <Latitude>35.888744</Latitude>
    <Longitude>-78.639277</Longitude>
  </Statistics>
  <Statistics>
    <City>Roseville</City>
    <State>CA</State>
    <Industry>Computer Hardware</Industry>
    <Revenue>8100000.0</Revenue>
    <Latitude>38.750895</Latitude>
    <Longitude>-121.302801</Longitude>
  </Statistics>
  <Statistics>
    <City>Melville</City>
    <State>NY</State>
    <Industry>Health</Industry>
    <Revenue>66900000.0</Revenue>
    <Latitude>40.794606</Latitude>
    <Longitude>-73.402963</Longitude>
  </Statistics>
  <Statistics>
    <City>Zumbrota</City>
    <State>MN</State>
    <Industry>Retail</Industry>
    <Revenue>3700000.0</Revenue>
    <Latitude>44.303179</Latitude>
    <Longitude>-92.671863</Longitude>
  </Statistics>
  <Statistics>
    <City>Syracuse</City>
    <State>NY</State>
    <Industry>Government Services</Industry>
    <Revenue>17200000.0</Revenue>
    <Latitude>43.042134</Latitude>
    <Longitude>-76.104609</Longitude>
  </Statistics>
  <Statistics>
    <City>Berlin</City>
    <State>WI</State>
    <Industry>Construction</Industry>
    <Revenue>10400000.0</Revenue>
    <Latitude>43.976936</Latitude>
    <Longitude>-88.949009</Longitude>
  </Statistics>
  <Statistics>
    <City>Delray Beach</City>
    <State>FL</State>
    <Industry>Advertising &amp; Marketing</Industry>
    <Revenue>49900000.0</Revenue>
    <Latitude>26.454272</Latitude>
    <Longitude>-80.13459</Longitude>
  </Statistics>
  <Statistics>
    <City>Buffalo</City>
    <State>NY</State>
    <Industry>IT Services</Industry>
    <Revenue>2700000.0</Revenue>
    <Latitude>42.973088</Latitude>
    <Longitude>-78.845</Longitude>
  </Statistics>
  <Statistics>
    <City>Solon</City>
    <State>OH</State>
    <Industry>Consumer Products &amp; Services</Industry>
    <Revenue>17200000.0</Revenue>
    <Latitude>41.386597</Latitude>
    <Longitude>-81.442082</Longitude>
  </Statistics>
  <Statistics>
    <City>Woodbury</City>
    <State>NY</State>
    <Industry>Advertising &amp; Marketing</Industry>
    <Revenue>56900000.0</Revenue>
    <Latitude>40.815441</Latitude>
    <Longitude>-73.471612</Longitude>
  </Statistics>
  <Statistics>
    <City>El Cajon</City>
    <State>CA</State>
    <Industry>Energy</Industry>
    <Revenue>58900000.0</Revenue>
    <Latitude>32.817847</Latitude>
    <Longitude>-116.922336</Longitude>
  </Statistics>
  <Statistics>
    <City>Saint Louis</City>
    <State>MO</State>
    <Industry>Human Resources</Industry>
    <Revenue>49000000.0</Revenue>
    <Latitude>38.713889</Latitude>
    <Longitude>-90.237512</Longitude>
  </Statistics>
  <Statistics>
    <City>Lafayette</City>
    <State>CA</State>
    <Industry>Energy</Industry>
    <Revenue>9200000.0</Revenue>
    <Latitude>37.896105</Latitude>
    <Longitude>-122.11194</Longitude>
  </Statistics>
  <Statistics>
    <City>Ashburn</City>
    <State>VA</State>
    <Industry>Government Services</Industry>
    <Revenue>8600000.0</Revenue>
    <Latitude>39.039918</Latitude>
    <Longitude>-77.480612</Longitude>
  </Statistics>
  <Statistics>
    <City>Wexford</City>
    <State>PA</State>
    <Industry>Health</Industry>
    <Revenue>97700000.0</Revenue>
    <Latitude>40.612044</Latitude>
    <Longitude>-80.064879</Longitude>
  </Statistics>
  <Statistics>
    <City>Monument</City>
    <State>CO</State>
    <Industry>Construction</Industry>
    <Revenue>4200000.0</Revenue>
    <Latitude>39.100726</Latitude>
    <Longitude>-104.85416</Longitude>
  </Statistics>
  <Statistics>
    <City>Edison</City>
    <State>NJ</State>
    <Industry>IT Services</Industry>
    <Revenue>13800000.0</Revenue>
    <Latitude>40.532476</Latitude>
    <Longitude>-74.337503</Longitude>
  </Statistics>
  <Statistics>
    <City>Amherst</City>
    <State>NY</State>
    <Industry>Human Resources</Industry>
    <Revenue>23600000.0</Revenue>
    <Latitude>43.018414</Latitude>
    <Longitude>-78.774604</Longitude>
  </Statistics>
  <Statistics>
    <City>Indianapolis</City>
    <State>IN</State>
    <Industry>Telecommunications</Industry>
    <Revenue>12600000.0</Revenue>
    <Latitude>39.740599</Latitude>
    <Longitude>-86.156944</Longitude>
  </Statistics>
  <Statistics>
    <City>Brentwood</City>
    <State>TN</State>
    <Industry>Health</Industry>
    <Revenue>56700000.0</Revenue>
    <Latitude>36.006272</Latitude>
    <Longitude>-86.790947</Longitude>
  </Statistics>
  <Statistics>
    <City>Sherman Oaks</City>
    <State>CA</State>
    <Industry>Business Products &amp; Services</Industry>
    <Revenue>7800000.0</Revenue>
    <Latitude>34.152565</Latitude>
    <Longitude>-118.432208</Longitude>
  </Statistics>
  <Statistics>
    <City>Plymouth</City>
    <State>MN</State>
    <Industry>Energy</Industry>
    <Revenue>439000000.0</Revenue>
    <Latitude>44.998593</Latitude>
    <Longitude>-93.494695</Longitude>
  </Statistics>
  <Statistics>
    <City>Paterson</City>
    <State>NJ</State>
    <Industry>Energy</Industry>
    <Revenue>4000000.0</Revenue>
    <Latitude>40.930916</Latitude>
    <Longitude>-74.155457</Longitude>
  </Statistics>
  <Statistics>
    <City>Scottsdale</City>
    <State>AZ</State>
    <Industry>Advertising &amp; Marketing</Industry>
    <Revenue>117900000.0</Revenue>
    <Latitude>33.77524</Latitude>
    <Longitude>-111.779135</Longitude>
  </Statistics>
  <Statistics>
    <City>Iselin</City>
    <State>NJ</State>
    <Industry>IT Services</Industry>
    <Revenue>4900000.0</Revenue>
    <Latitude>40.571593</Latitude>
    <Longitude>-74.316677</Longitude>
  </Statistics>
  <Statistics>
    <City>Ann Arbor</City>
    <State>MI</State>
    <Industry>Financial Services</Industry>
    <Revenue>11100000.0</Revenue>
    <Latitude>42.293</Latitude>
    <Longitude>-83.715363</Longitude>
  </Statistics>
  <Statistics>
    <City>Kalamazoo</City>
    <State>MI</State>
    <Industry>Health</Industry>
    <Revenue>3100000.0</Revenue>
    <Latitude>42.280947</Latitude>
    <Longitude>-85.686333</Longitude>
  </Statistics>
  <Statistics>
    <City>Southfield</City>
    <State>MI</State>
    <Industry>IT Services</Industry>
    <Revenue>12200000.0</Revenue>
    <Latitude>42.463831</Latitude>
    <Longitude>-83.225539</Longitude>
  </Statistics>
  <Statistics>
    <City>Fenton</City>
    <State>MO</State>
    <Industry>Consumer Products &amp; Services</Industry>
    <Revenue>33500000.0</Revenue>
    <Latitude>38.501489</Latitude>
    <Longitude>-90.468299</Longitude>
  </Statistics>
  <Statistics>
    <City>Rincon</City>
    <State>GA</State>
    <Industry>Health</Industry>
    <Revenue>2300000.0</Revenue>
    <Latitude>32.235632</Latitude>
    <Longitude>-81.287777</Longitude>
  </Statistics>
  <Statistics>
    <City>Hanover</City>
    <State>MD</State>
    <Industry>Government Services</Industry>
    <Revenue>5000000.0</Revenue>
    <Latitude>39.155069</Latitude>
    <Longitude>-76.721535</Longitude>
  </Statistics>
  <Statistics>
    <City>Berkeley</City>
    <State>CA</State>
    <Industry>Consumer Products &amp; Services</Industry>
    <Revenue>3100000.0</Revenue>
    <Latitude>37.869603</Latitude>
    <Longitude>-122.295929</Longitude>
  </Statistics>
  <Statistics>
    <City>Flushing</City>
    <State>NY</State>
    <Industry>Security</Industry>
    <Revenue>5600000.0</Revenue>
    <Latitude>40.772117</Latitude>
    <Longitude>-73.873535</Longitude>
  </Statistics>
  <Statistics>
    <City>San Luis Obispo</City>
    <State>CA</State>
    <Industry>Software</Industry>
    <Revenue>6000000.0</Revenue>
    <Latitude>35.290058</Latitude>
    <Longitude>-120.681724</Longitude>
  </Statistics>
  <Statistics>
    <City>Fort Lauderdale</City>
    <State>FL</State>
    <Industry>Health</Industry>
    <Revenue>56700000.0</Revenue>
    <Latitude>26.117586</Latitude>
    <Longitude>-80.250587</Longitude>
  </Statistics>
  <Statistics>
    <City>Hooksett</City>
    <State>NH</State>
    <Industry>Advertising &amp; Marketing</Industry>
    <Revenue>37900000.0</Revenue>
    <Latitude>43.061708</Latitude>
    <Longitude>-71.444446</Longitude>
  </Statistics>
  <Statistics>
    <City>Temple</City>
    <State>TX</State>
    <Industry>Government Services</Industry>
    <Revenue>47100000.0</Revenue>
    <Latitude>31.091742</Latitude>
    <Longitude>-97.364764</Longitude>
  </Statistics>
  <Statistics>
    <City>Libertyville</City>
    <State>IL</State>
    <Industry>Consumer Products &amp; Services</Industry>
    <Revenue>6400000.0</Revenue>
    <Latitude>42.281001</Latitude>
    <Longitude>-87.949955</Longitude>
  </Statistics>
  <Statistics>
    <City>Victor</City>
    <State>NY</State>
    <Industry>Business Products &amp; Services</Industry>
    <Revenue>14500000.0</Revenue>
    <Latitude>42.986597</Latitude>
    <Longitude>-77.417982</Longitude>
  </Statistics>
  <Statistics>
    <City>Dumfries</City>
    <State>VA</State>
    <Industry>Government Services</Industry>
    <Revenue>8700000.0</Revenue>
    <Latitude>38.602344</Latitude>
    <Longitude>-77.338704</Longitude>
  </Statistics>
  <Statistics>
    <City>Gilbert</City>
    <State>AZ</State>
    <Industry>Software</Industry>
    <Revenue>12600000.0</Revenue>
    <Latitude>33.352746</Latitude>
    <Longitude>-111.780876</Longitude>
  </Statistics>
  <Statistics>
    <City>Carlsbad</City>
    <State>CA</State>
    <Industry>Construction</Industry>
    <Revenue>2100000.0</Revenue>
    <Latitude>33.095407</Latitude>
    <Longitude>-117.261888</Longitude>
  </Statistics>
  <Statistics>
    <City>Naperville</City>
    <State>IL</State>
    <Industry>IT Services</Industry>
    <Revenue>7500000.0</Revenue>
    <Latitude>41.732833</Latitude>
    <Longitude>-88.128245</Longitude>
  </Statistics>
  <Statistics>
    <City>West Hazleton</City>
    <State>PA</State>
    <Industry>Retail</Industry>
    <Revenue>4800000.0</Revenue>
    <Latitude>40.962107</Latitude>
    <Longitude>-75.978193</Longitude>
  </Statistics>
  <Statistics>
    <City>Huntington Beach</City>
    <State>CA</State>
    <Industry>Advertising &amp; Marketing</Industry>
    <Revenue>2400000.0</Revenue>
    <Latitude>33.719111</Latitude>
    <Longitude>-118.045142</Longitude>
  </Statistics>
  <Statistics>
    <City>Bridgeport</City>
    <State>WV</State>
    <Industry>Environmental Services</Industry>
    <Revenue>5700000.0</Revenue>
    <Latitude>39.29537</Latitude>
    <Longitude>-80.242692</Longitude>
  </Statistics>
  <Statistics>
    <City>Lincoln</City>
    <State>NE</State>
    <Industry>IT Services</Industry>
    <Revenue>3000000.0</Revenue>
    <Latitude>40.792159</Latitude>
    <Longitude>-96.85509</Longitude>
  </Statistics>
  <Statistics>
    <City>Herndon</City>
    <State>VA</State>
    <Industry>IT Services</Industry>
    <Revenue>11000000.0</Revenue>
    <Latitude>38.919537</Latitude>
    <Longitude>-77.395155</Longitude>
  </Statistics>
  <Statistics>
    <City>Allentown</City>
    <State>PA</State>
    <Industry>IT Services</Industry>
    <Revenue>2400000.0</Revenue>
    <Latitude>40.601849</Latitude>
    <Longitude>-75.522499</Longitude>
  </Statistics>
  <Statistics>
    <City>Van Nuys</City>
    <State>CA</State>
    <Industry>Media</Industry>
    <Revenue>5700000.0</Revenue>
    <Latitude>34.178133</Latitude>
    <Longitude>-118.457396</Longitude>
  </Statistics>
  <Statistics>
    <City>Aliso Viejo</City>
    <State>CA</State>
    <Industry>Advertising &amp; Marketing</Industry>
    <Revenue>10000000.0</Revenue>
    <Latitude>33.572367</Latitude>
    <Longitude>-117.708906</Longitude>
  </Statistics>
  <Statistics>
    <City>Charlotte</City>
    <State>NC</State>
    <Industry>Consumer Products &amp; Services</Industry>
    <Revenue>5700000.0</Revenue>
    <Latitude>35.146685</Latitude>
    <Longitude>-80.960421</Longitude>
  </Statistics>
  <Statistics>
    <City>Bellingham</City>
    <State>WA</State>
    <Industry>Financial Services</Industry>
    <Revenue>15600000.0</Revenue>
    <Latitude>48.762763</Latitude>
    <Longitude>-122.441457</Longitude>
  </Statistics>
  <Statistics>
    <City>Moscow</City>
    <State>ID</State>
    <Industry>Software</Industry>
    <Revenue>4000000.0</Revenue>
    <Latitude>46.730921</Latitude>
    <Longitude>-116.989683</Longitude>
  </Statistics>
  <Statistics>
    <City>Ridgeland</City>
    <State>MS</State>
    <Industry>Software</Industry>
    <Revenue>19500000.0</Revenue>
    <Latitude>32.412165</Latitude>
    <Longitude>-90.120697</Longitude>
  </Statistics>
  <Statistics>
    <City>Cedarhurst</City>
    <State>NY</State>
    <Industry>Retail</Industry>
    <Revenue>30600000.0</Revenue>
    <Latitude>40.623619</Latitude>
    <Longitude>-73.726404</Longitude>
  </Statistics>
  <Statistics>
    <City>Omaha</City>
    <State>NE</State>
    <Industry>Engineering</Industry>
    <Revenue>12500000.0</Revenue>
    <Latitude>41.29552</Latitude>
    <Longitude>-96.100793</Longitude>
  </Statistics>
  <Statistics>
    <City>Limerick</City>
    <State>ME</State>
    <Industry>Manufacturing</Industry>
    <Revenue>4000000.0</Revenue>
    <Latitude>43.696265</Latitude>
    <Longitude>-70.786556</Longitude>
  </Statistics>
  <Statistics>
    <City>Oldsmar</City>
    <State>FL</State>
    <Industry>Advertising &amp; Marketing</Industry>
    <Revenue>37100000.0</Revenue>
    <Latitude>28.046035</Latitude>
    <Longitude>-82.684778</Longitude>
  </Statistics>
  <Statistics>
    <City>Sandy</City>
    <State>UT</State>
    <Industry>IT Services</Industry>
    <Revenue>24200000.0</Revenue>
    <Latitude>40.568757</Latitude>
    <Longitude>-111.861716</Longitude>
  </Statistics>
  <Statistics>
    <City>Jamaica</City>
    <State>NY</State>
    <Industry>Construction</Industry>
    <Revenue>3400000.0</Revenue>
    <Latitude>40.676347</Latitude>
    <Longitude>-73.796596</Longitude>
  </Statistics>
  <Statistics>
    <City>Lenoir City</City>
    <State>TN</State>
    <Industry>Construction</Industry>
    <Revenue>6900000.0</Revenue>
    <Latitude>35.810391</Latitude>
    <Longitude>-84.266501</Longitude>
  </Statistics>
  <Statistics>
    <City>Odessa</City>
    <State>FL</State>
    <Industry>Computer Hardware</Industry>
    <Revenue>3500000.0</Revenue>
    <Latitude>28.142072</Latitude>
    <Longitude>-82.590506</Longitude>
  </Statistics>
  <Statistics>
    <City>Frisco</City>
    <State>TX</State>
    <Industry>IT Services</Industry>
    <Revenue>32800000.0</Revenue>
    <Latitude>33.149901</Latitude>
    <Longitude>-96.824105</Longitude>
  </Statistics>
  <Statistics>
    <City>Gahanna</City>
    <State>OH</State>
    <Industry>Education</Industry>
    <Revenue>3800000.0</Revenue>
    <Latitude>40.038458</Latitude>
    <Longitude>-82.882429</Longitude>
  </Statistics>
  <Statistics>
    <City>Hampstead</City>
    <State>NH</State>
    <Industry>IT Services</Industry>
    <Revenue>2600000.0</Revenue>
    <Latitude>42.881957</Latitude>
    <Longitude>-71.175802</Longitude>
  </Statistics>
  <Statistics>
    <City>Springfield</City>
    <State>MO</State>
    <Industry>Financial Services</Industry>
    <Revenue>14100000.0</Revenue>
    <Latitude>37.113647</Latitude>
    <Longitude>-93.289594</Longitude>
  </Statistics>
  <Statistics>
    <City>Beverly Hills</City>
    <State>CA</State>
    <Industry>Advertising &amp; Marketing</Industry>
    <Revenue>108600000.0</Revenue>
    <Latitude>34.061855</Latitude>
    <Longitude>-118.399544</Longitude>
  </Statistics>
  <Statistics>
    <City>Clarksville</City>
    <State>MD</State>
    <Industry>Government Services</Industry>
    <Revenue>3500000.0</Revenue>
    <Latitude>39.194362</Latitude>
    <Longitude>-76.942271</Longitude>
  </Statistics>
  <Statistics>
    <City>Cannon Falls</City>
    <State>MN</State>
    <Industry>Retail</Industry>
    <Revenue>49800000.0</Revenue>
    <Latitude>44.495985</Latitude>
    <Longitude>-92.863995</Longitude>
  </Statistics>
  <Statistics>
    <City>Stafford</City>
    <State>TX</State>
    <Industry>Security</Industry>
    <Revenue>5600000.0</Revenue>
    <Latitude>29.622816</Latitude>
    <Longitude>-95.567764</Longitude>
  </Statistics>
  <Statistics>
    <City>Prescott</City>
    <State>AZ</State>
    <Industry>Consumer Products &amp; Services</Industry>
    <Revenue>16100000.0</Revenue>
    <Latitude>34.629909</Latitude>
    <Longitude>-113.022459</Longitude>
  </Statistics>
  <Statistics>
    <City>Madison</City>
    <State>WI</State>
    <Industry>Retail</Industry>
    <Revenue>4000000.0</Revenue>
    <Latitude>43.03207</Latitude>
    <Longitude>-89.499324</Longitude>
  </Statistics>
  <Statistics>
    <City>Virginia Beach</City>
    <State>VA</State>
    <Industry>Business Products &amp; Services</Industry>
    <Revenue>7000000.0</Revenue>
    <Latitude>36.797772</Latitude>
    <Longitude>-76.175909</Longitude>
  </Statistics>
  <Statistics>
    <City>Southbury</City>
    <State>CT</State>
    <Industry>IT Services</Industry>
    <Revenue>15700000.0</Revenue>
    <Latitude>41.476695</Latitude>
    <Longitude>-73.224077</Longitude>
  </Statistics>
  <Statistics>
    <City>Wichita</City>
    <State>KS</State>
    <Industry>Business Products &amp; Services</Industry>
    <Revenue>8200000.0</Revenue>
    <Latitude>37.497943</Latitude>
    <Longitude>-97.26821</Longitude>
  </Statistics>
  <Statistics>
    <City>Columbus</City>
    <State>WI</State>
    <Industry>Retail</Industry>
    <Revenue>10000000.0</Revenue>
    <Latitude>43.331494</Latitude>
    <Longitude>-89.027089</Longitude>
  </Statistics>
  <Statistics>
    <City>Deerfield Beach</City>
    <State>FL</State>
    <Industry>Manufacturing</Industry>
    <Revenue>20200000.0</Revenue>
    <Latitude>26.312365</Latitude>
    <Longitude>-80.141242</Longitude>
  </Statistics>
  <Statistics>
    <City>Memphis</City>
    <State>TN</State>
    <Industry>Energy</Industry>
    <Revenue>6200000.0</Revenue>
    <Latitude>35.023091</Latitude>
    <Longitude>-89.84916</Longitude>
  </Statistics>
  <Statistics>
    <City>Boonton</City>
    <State>NJ</State>
    <Industry>Health</Industry>
    <Revenue>7000000.0</Revenue>
    <Latitude>40.911528</Latitude>
    <Longitude>-74.414035</Longitude>
  </Statistics>
  <Statistics>
    <City>Grapevine</City>
    <State>TX</State>
    <Industry>Logistics &amp; Transportation</Industry>
    <Revenue>8500000.0</Revenue>
    <Latitude>32.956456</Latitude>
    <Longitude>-97.148066</Longitude>
  </Statistics>
  <Statistics>
    <City>Smyrna</City>
    <State>GA</State>
    <Industry>IT Services</Industry>
    <Revenue>8600000.0</Revenue>
    <Latitude>33.863051</Latitude>
    <Longitude>-84.538234</Longitude>
  </Statistics>
  <Statistics>
    <City>King of Prussia</City>
    <State>PA</State>
    <Industry>Security</Industry>
    <Revenue>5400000.0</Revenue>
    <Latitude>40.095581</Latitude>
    <Longitude>-75.373706</Longitude>
  </Statistics>
  <Statistics>
    <City>Irving</City>
    <State>TX</State>
    <Industry>IT Services</Industry>
    <Revenue>6700000.0</Revenue>
    <Latitude>32.924686</Latitude>
    <Longitude>-96.959817</Longitude>
  </Statistics>
  <Statistics>
    <City>Buffalo Grove</City>
    <State>IL</State>
    <Industry>Retail</Industry>
    <Revenue>7900000.0</Revenue>
    <Latitude>42.159843</Latitude>
    <Longitude>-87.964364</Longitude>
  </Statistics>
  <Statistics>
    <City>Springfield</City>
    <State>OH</State>
    <Industry>IT Services</Industry>
    <Revenue>3600000.0</Revenue>
    <Latitude>39.910418</Latitude>
    <Longitude>-83.827512</Longitude>
  </Statistics>
  <Statistics>
    <City>Colorado Springs</City>
    <State>CO</State>
    <Industry>Business Products &amp; Services</Industry>
    <Revenue>10400000.0</Revenue>
    <Latitude>38.828926</Latitude>
    <Longitude>-104.526924</Longitude>
  </Statistics>
  <Statistics>
    <City>Springfield</City>
    <State>VA</State>
    <Industry>Government Services</Industry>
    <Revenue>49000000.0</Revenue>
    <Latitude>38.744859</Latitude>
    <Longitude>-77.237026</Longitude>
  </Statistics>
  <Statistics>
    <City>Fargo</City>
    <State>ND</State>
    <Industry>IT Services</Industry>
    <Revenue>2400000.0</Revenue>
    <Latitude>46.856406</Latitude>
    <Longitude>-96.812252</Longitude>
  </Statistics>
  <Statistics>
    <City>Bohemia</City>
    <State>NY</State>
    <Industry>Health</Industry>
    <Revenue>10900000.0</Revenue>
    <Latitude>40.767788</Latitude>
    <Longitude>-73.116339</Longitude>
  </Statistics>
  <Statistics>
    <City>Springville</City>
    <State>UT</State>
    <Industry>IT Services</Industry>
    <Revenue>5200000.0</Revenue>
    <Latitude>40.162528</Latitude>
    <Longitude>-111.598664</Longitude>
  </Statistics>
  <Statistics>
    <City>Pendergrass</City>
    <State>GA</State>
    <Industry>Food &amp; Beverage</Industry>
    <Revenue>14500000.0</Revenue>
    <Latitude>34.179634</Latitude>
    <Longitude>-83.663356</Longitude>
  </Statistics>
  <Statistics>
    <City>River Falls</City>
    <State>WI</State>
    <Industry>Business Products &amp; Services</Industry>
    <Revenue>10700000.0</Revenue>
    <Latitude>44.85501</Latitude>
    <Longitude>-92.631275</Longitude>
  </Statistics>
  <Statistics>
    <City>New Hyde Park</City>
    <State>NY</State>
    <Industry>Manufacturing</Industry>
    <Revenue>3000000.0</Revenue>
    <Latitude>40.7602</Latitude>
    <Longitude>-73.694978</Longitude>
  </Statistics>
  <Statistics>
    <City>Aurora</City>
    <State>IL</State>
    <Industry>Advertising &amp; Marketing</Industry>
    <Revenue>6500000.0</Revenue>
    <Latitude>41.766414</Latitude>
    <Longitude>-88.344582</Longitude>
  </Statistics>
  <Statistics>
    <City>Escondido</City>
    <State>CA</State>
    <Industry>IT Services</Industry>
    <Revenue>2200000.0</Revenue>
    <Latitude>33.089497</Latitude>
    <Longitude>-117.112793</Longitude>
  </Statistics>
  <Statistics>
    <City>Lancaster</City>
    <State>PA</State>
    <Industry>Construction</Industry>
    <Revenue>7000000.0</Revenue>
    <Latitude>40.033514</Latitude>
    <Longitude>-76.284364</Longitude>
  </Statistics>
  <Statistics>
    <City>Montgomery</City>
    <State>AL</State>
    <Industry>Retail</Industry>
    <Revenue>3700000.0</Revenue>
    <Latitude>32.373568</Latitude>
    <Longitude>-86.183299</Longitude>
  </Statistics>
  <Statistics>
    <City>Norfolk</City>
    <State>NE</State>
    <Industry>Consumer Products &amp; Services</Industry>
    <Revenue>2700000.0</Revenue>
    <Latitude>42.032914</Latitude>
    <Longitude>-97.422898</Longitude>
  </Statistics>
  <Statistics>
    <City>Duluth</City>
    <State>GA</State>
    <Industry>Health</Industry>
    <Revenue>4300000.0</Revenue>
    <Latitude>33.98619</Latitude>
    <Longitude>-84.157936</Longitude>
  </Statistics>
  <Statistics>
    <City>Verona</City>
    <State>NJ</State>
    <Industry>Health</Industry>
    <Revenue>2500000.0</Revenue>
    <Latitude>40.831928</Latitude>
    <Longitude>-74.242847</Longitude>
  </Statistics>
  <Statistics>
    <City>Franklin Park</City>
    <State>IL</State>
    <Industry>Construction</Industry>
    <Revenue>4900000.0</Revenue>
    <Latitude>41.933878</Latitude>
    <Longitude>-87.873423</Longitude>
  </Statistics>
  <Statistics>
    <City>Kennesaw</City>
    <State>GA</State>
    <Industry>Telecommunications</Industry>
    <Revenue>2900000.0</Revenue>
    <Latitude>34.028656</Latitude>
    <Longitude>-84.60466</Longitude>
  </Statistics>
  <Statistics>
    <City>Madison</City>
    <State>NC</State>
    <Industry>Retail</Industry>
    <Revenue>3400000.0</Revenue>
    <Latitude>36.369507</Latitude>
    <Longitude>-79.965438</Longitude>
  </Statistics>
  <Statistics>
    <City>Summit</City>
    <State>NJ</State>
    <Industry>Telecommunications</Industry>
    <Revenue>28300000.0</Revenue>
    <Latitude>40.71494</Latitude>
    <Longitude>-74.364159</Longitude>
  </Statistics>
  <Statistics>
    <City>Milpitas</City>
    <State>CA</State>
    <Industry>IT Services</Industry>
    <Revenue>3100000.0</Revenue>
    <Latitude>37.436491</Latitude>
    <Longitude>-121.892885</Longitude>
  </Statistics>
  <Statistics>
    <City>Beachwood</City>
    <State>OH</State>
    <Industry>Government Services</Industry>
    <Revenue>4500000.0</Revenue>
    <Latitude>41.470109</Latitude>
    <Longitude>-81.523172</Longitude>
  </Statistics>
  <Statistics>
    <City>Jefferson City</City>
    <State>MO</State>
    <Industry>Health</Industry>
    <Revenue>3900000.0</Revenue>
    <Latitude>38.577272</Latitude>
    <Longitude>-92.244298</Longitude>
  </Statistics>
  <Statistics>
    <City>Industry</City>
    <State>CA</State>
    <Industry>Food &amp; Beverage</Industry>
    <Revenue>9900000.0</Revenue>
    <Latitude>34.029428</Latitude>
    <Longitude>-117.934098</Longitude>
  </Statistics>
  <Statistics>
    <City>Heathrow</City>
    <State>FL</State>
    <Industry>IT Services</Industry>
    <Revenue>2100000.0</Revenue>
    <Latitude>28.752352</Latitude>
    <Longitude>-81.338075</Longitude>
  </Statistics>
  <Statistics>
    <City>Baton Rouge</City>
    <State>LA</State>
    <Industry>Environmental Services</Industry>
    <Revenue>14200000.0</Revenue>
    <Latitude>30.379523</Latitude>
    <Longitude>-91.167064</Longitude>
  </Statistics>
  <Statistics>
    <City>Sewickley</City>
    <State>PA</State>
    <Industry>Energy</Industry>
    <Revenue>15300000.0</Revenue>
    <Latitude>40.557031</Latitude>
    <Longitude>-80.157848</Longitude>
  </Statistics>
  <Statistics>
    <City>Jupiter</City>
    <State>FL</State>
    <Industry>Retail</Industry>
    <Revenue>32000000.0</Revenue>
    <Latitude>26.921242</Latitude>
    <Longitude>-80.214388</Longitude>
  </Statistics>
  <Statistics>
    <City>Casselberry</City>
    <State>FL</State>
    <Industry>Security</Industry>
    <Revenue>4900000.0</Revenue>
    <Latitude>28.661671</Latitude>
    <Longitude>-81.312215</Longitude>
  </Statistics>
  <Statistics>
    <City>Tallahassee</City>
    <State>FL</State>
    <Industry>Business Products &amp; Services</Industry>
    <Revenue>2700000.0</Revenue>
    <Latitude>30.518474</Latitude>
    <Longitude>-84.262708</Longitude>
  </Statistics>
  <Statistics>
    <City>Cape Canaveral</City>
    <State>FL</State>
    <Industry>Government Services</Industry>
    <Revenue>12000000.0</Revenue>
    <Latitude>28.39034</Latitude>
    <Longitude>-80.604267</Longitude>
  </Statistics>
  <Statistics>
    <City>Newburyport</City>
    <State>MA</State>
    <Industry>Business Products &amp; Services</Industry>
    <Revenue>2200000.0</Revenue>
    <Latitude>42.812964</Latitude>
    <Longitude>-70.884668</Longitude>
  </Statistics>
  <Statistics>
    <City>Miamisburg</City>
    <State>OH</State>
    <Industry>Business Products &amp; Services</Industry>
    <Revenue>7400000.0</Revenue>
    <Latitude>39.632095</Latitude>
    <Longitude>-84.267477</Longitude>
  </Statistics>
  <Statistics>
    <City>Huntington Park</City>
    <State>CA</State>
    <Industry>Consumer Products &amp; Services</Industry>
    <Revenue>43000000.0</Revenue>
    <Latitude>33.976879</Latitude>
    <Longitude>-118.216053</Longitude>
  </Statistics>
  <Statistics>
    <City>Acworth</City>
    <State>GA</State>
    <Industry>Security</Industry>
    <Revenue>3800000.0</Revenue>
    <Latitude>34.075627</Latitude>
    <Longitude>-84.647741</Longitude>
  </Statistics>
  <Statistics>
    <City>Newark</City>
    <State>OH</State>
    <Industry>Health</Industry>
    <Revenue>3100000.0</Revenue>
    <Latitude>40.072429</Latitude>
    <Longitude>-82.404565</Longitude>
  </Statistics>
  <Statistics>
    <City>Alhambra</City>
    <State>CA</State>
    <Industry>Business Products &amp; Services</Industry>
    <Revenue>3200000.0</Revenue>
    <Latitude>34.074514</Latitude>
    <Longitude>-118.143354</Longitude>
  </Statistics>
  <Statistics>
    <City>Troy</City>
    <State>OH</State>
    <Industry>Telecommunications</Industry>
    <Revenue>4600000.0</Revenue>
    <Latitude>40.037394</Latitude>
    <Longitude>-84.203151</Longitude>
  </Statistics>
  <Statistics>
    <City>Nashville</City>
    <State>TN</State>
    <Industry>Business Products &amp; Services</Industry>
    <Revenue>8300000.0</Revenue>
    <Latitude>36.190145</Latitude>
    <Longitude>-86.805264</Longitude>
  </Statistics>
  <Statistics>
    <City>Westminster</City>
    <State>CO</State>
    <Industry>Government Services</Industry>
    <Revenue>6300000.0</Revenue>
    <Latitude>39.854238</Latitude>
    <Longitude>-105.037086</Longitude>
  </Statistics>
  <Statistics>
    <City>Lawrenceville</City>
    <State>GA</State>
    <Industry>IT Services</Industry>
    <Revenue>3000000.0</Revenue>
    <Latitude>33.944293</Latitude>
    <Longitude>-83.996413</Longitude>
  </Statistics>
  <Statistics>
    <City>Windham</City>
    <State>ME</State>
    <Industry>Manufacturing</Industry>
    <Revenue>2000000.0</Revenue>
    <Latitude>43.795771</Latitude>
    <Longitude>-70.414281</Longitude>
  </Statistics>
  <Statistics>
    <City>Marietta</City>
    <State>GA</State>
    <Industry>Construction</Industry>
    <Revenue>2400000.0</Revenue>
    <Latitude>33.967861</Latitude>
    <Longitude>-84.438549</Longitude>
  </Statistics>
  <Statistics>
    <City>Glen Ellyn</City>
    <State>IL</State>
    <Industry>Real Estate</Industry>
    <Revenue>17600000.0</Revenue>
    <Latitude>41.866112</Latitude>
    <Longitude>-88.064774</Longitude>
  </Statistics>
  <Statistics>
    <City>Fairfield</City>
    <State>NJ</State>
    <Industry>Advertising &amp; Marketing</Industry>
    <Revenue>44500000.0</Revenue>
    <Latitude>40.882178</Latitude>
    <Longitude>-74.296027</Longitude>
  </Statistics>
  <Statistics>
    <City>Allen</City>
    <State>TX</State>
    <Industry>Financial Services</Industry>
    <Revenue>5000000.0</Revenue>
    <Latitude>33.093383</Latitude>
    <Longitude>-96.645433</Longitude>
  </Statistics>
  <Statistics>
    <City>Payson</City>
    <State>UT</State>
    <Industry>Software</Industry>
    <Revenue>3200000.0</Revenue>
    <Latitude>40.044866</Latitude>
    <Longitude>-111.732138</Longitude>
  </Statistics>
  <Statistics>
    <City>Charlottesville</City>
    <State>VA</State>
    <Industry>Advertising &amp; Marketing</Industry>
    <Revenue>4500000.0</Revenue>
    <Latitude>38.054752</Latitude>
    <Longitude>-78.490869</Longitude>
  </Statistics>
  <Statistics>
    <City>Greenville</City>
    <State>SC</State>
    <Industry>IT Services</Industry>
    <Revenue>5600000.0</Revenue>
    <Latitude>34.866095</Latitude>
    <Longitude>-82.319815</Longitude>
  </Statistics>
  <Statistics>
    <City>Gridley</City>
    <State>CA</State>
    <Industry>Food &amp; Beverage</Industry>
    <Revenue>5700000.0</Revenue>
    <Latitude>39.358855</Latitude>
    <Longitude>-121.689777</Longitude>
  </Statistics>
  <Statistics>
    <City>Lehi</City>
    <State>UT</State>
    <Industry>Software</Industry>
    <Revenue>4100000.0</Revenue>
    <Latitude>40.395845</Latitude>
    <Longitude>-111.850606</Longitude>
  </Statistics>
  <Statistics>
    <City>Rowlett</City>
    <State>TX</State>
    <Industry>Construction</Industry>
    <Revenue>5800000.0</Revenue>
    <Latitude>32.90315</Latitude>
    <Longitude>-96.547161</Longitude>
  </Statistics>
  <Statistics>
    <City>Lowell</City>
    <State>MA</State>
    <Industry>Environmental Services</Industry>
    <Revenue>13200000.0</Revenue>
    <Latitude>42.649254</Latitude>
    <Longitude>-71.335464</Longitude>
  </Statistics>
  <Statistics>
    <City>Leesburg</City>
    <State>VA</State>
    <Industry>Government Services</Industry>
    <Revenue>7500000.0</Revenue>
    <Latitude>39.116517</Latitude>
    <Longitude>-77.565918</Longitude>
  </Statistics>
  <Statistics>
    <City>Framingham</City>
    <State>MA</State>
    <Industry>Consumer Products &amp; Services</Industry>
    <Revenue>30900000.0</Revenue>
    <Latitude>42.300665</Latitude>
    <Longitude>-71.425486</Longitude>
  </Statistics>
  <Statistics>
    <City>Pasadena</City>
    <State>CA</State>
    <Industry>Retail</Industry>
    <Revenue>32100000.0</Revenue>
    <Latitude>34.150997</Latitude>
    <Longitude>-118.088905</Longitude>
  </Statistics>
  <Statistics>
    <City>Prior Lake</City>
    <State>MN</State>
    <Industry>Construction</Industry>
    <Revenue>2400000.0</Revenue>
    <Latitude>44.710694</Latitude>
    <Longitude>-93.410057</Longitude>
  </Statistics>
  <Statistics>
    <City>Chattanooga</City>
    <State>TN</State>
    <Industry>Logistics &amp; Transportation</Industry>
    <Revenue>46600000.0</Revenue>
    <Latitude>35.024986</Latitude>
    <Longitude>-85.14594</Longitude>
  </Statistics>
  <Statistics>
    <City>Gadsden</City>
    <State>AL</State>
    <Industry>Financial Services</Industry>
    <Revenue>4000000.0</Revenue>
    <Latitude>34.021694</Latitude>
    <Longitude>-86.049479</Longitude>
  </Statistics>
  <Statistics>
    <City>Randolph</City>
    <State>NJ</State>
    <Industry>Government Services</Industry>
    <Revenue>15900000.0</Revenue>
    <Latitude>40.845557</Latitude>
    <Longitude>-74.572519</Longitude>
  </Statistics>
  <Statistics>
    <City>Santa Ana</City>
    <State>CA</State>
    <Industry>IT Services</Industry>
    <Revenue>11600000.0</Revenue>
    <Latitude>33.764434</Latitude>
    <Longitude>-117.881791</Longitude>
  </Statistics>
  <Statistics>
    <City>Woodbury</City>
    <State>TN</State>
    <Industry>Construction</Industry>
    <Revenue>2100000.0</Revenue>
    <Latitude>35.814254</Latitude>
    <Longitude>-86.050044</Longitude>
  </Statistics>
  <Statistics>
    <City>Longmont</City>
    <State>CO</State>
    <Industry>Food &amp; Beverage</Industry>
    <Revenue>4300000.0</Revenue>
    <Latitude>40.130615</Latitude>
    <Longitude>-104.950446</Longitude>
  </Statistics>
  <Statistics>
    <City>Downey</City>
    <State>CA</State>
    <Industry>Consumer Products &amp; Services</Industry>
    <Revenue>4400000.0</Revenue>
    <Latitude>33.921789</Latitude>
    <Longitude>-118.139465</Longitude>
  </Statistics>
  <Statistics>
    <City>Westborough</City>
    <State>MA</State>
    <Industry>Health</Industry>
    <Revenue>98000000.0</Revenue>
    <Latitude>42.267891</Latitude>
    <Longitude>-71.617604</Longitude>
  </Statistics>
  <Statistics>
    <City>Monroeville</City>
    <State>PA</State>
    <Industry>IT Services</Industry>
    <Revenue>10500000.0</Revenue>
    <Latitude>40.429026</Latitude>
    <Longitude>-79.762279</Longitude>
  </Statistics>
  <Statistics>
    <City>Blue Springs</City>
    <State>MO</State>
    <Industry>Construction</Industry>
    <Revenue>2500000.0</Revenue>
    <Latitude>39.015186</Latitude>
    <Longitude>-94.260429</Longitude>
  </Statistics>
  <Statistics>
    <City>State College</City>
    <State>PA</State>
    <Industry>Education</Industry>
    <Revenue>7000000.0</Revenue>
    <Latitude>40.808162</Latitude>
    <Longitude>-77.892578</Longitude>
  </Statistics>
  <Statistics>
    <City>Philipsburg</City>
    <State>PA</State>
    <Industry>Health</Industry>
    <Revenue>10500000.0</Revenue>
    <Latitude>40.886252</Latitude>
    <Longitude>-78.219008</Longitude>
  </Statistics>
  <Statistics>
    <City>Sacramento</City>
    <State>CA</State>
    <Industry>Business Products &amp; Services</Industry>
    <Revenue>2900000.0</Revenue>
    <Latitude>38.587768</Latitude>
    <Longitude>-121.376889</Longitude>
  </Statistics>
  <Statistics>
    <City>Jackson</City>
    <State>MS</State>
    <Industry>Food &amp; Beverage</Industry>
    <Revenue>11700000.0</Revenue>
    <Latitude>32.30085</Latitude>
    <Longitude>-90.188503</Longitude>
  </Statistics>
  <Statistics>
    <City>Clackamas</City>
    <State>OR</State>
    <Industry>Consumer Products &amp; Services</Industry>
    <Revenue>16700000.0</Revenue>
    <Latitude>45.414992</Latitude>
    <Longitude>-122.52005</Longitude>
  </Statistics>
  <Statistics>
    <City>Tonawanda</City>
    <State>NY</State>
    <Industry>Health</Industry>
    <Revenue>22200000.0</Revenue>
    <Latitude>43.002837</Latitude>
    <Longitude>-78.85472</Longitude>
  </Statistics>
  <Statistics>
    <City>Pleasanton</City>
    <State>CA</State>
    <Industry>Human Resources</Industry>
    <Revenue>7100000.0</Revenue>
    <Latitude>37.687311</Latitude>
    <Longitude>-121.8957</Longitude>
  </Statistics>
  <Statistics>
    <City>Farmington Hills</City>
    <State>MI</State>
    <Industry>Software</Industry>
    <Revenue>5000000.0</Revenue>
    <Latitude>42.460938</Latitude>
    <Longitude>-83.345465</Longitude>
  </Statistics>
  <Statistics>
    <City>Bloomington</City>
    <State>IN</State>
    <Industry>Education</Industry>
    <Revenue>2600000.0</Revenue>
    <Latitude>39.195026</Latitude>
    <Longitude>-86.57572</Longitude>
  </Statistics>
  <Statistics>
    <City>Beverly</City>
    <State>MA</State>
    <Industry>Software</Industry>
    <Revenue>10500000.0</Revenue>
    <Latitude>42.560825</Latitude>
    <Longitude>-70.875939</Longitude>
  </Statistics>
  <Statistics>
    <City>Parsippany</City>
    <State>NJ</State>
    <Industry>Health</Industry>
    <Revenue>8100000.0</Revenue>
    <Latitude>40.862106</Latitude>
    <Longitude>-74.411663</Longitude>
  </Statistics>
  <Statistics>
    <City>El Paso</City>
    <State>TX</State>
    <Industry>Logistics &amp; Transportation</Industry>
    <Revenue>6800000.0</Revenue>
    <Latitude>31.767655</Latitude>
    <Longitude>-106.30159</Longitude>
  </Statistics>
  <Statistics>
    <City>Wayne</City>
    <State>NJ</State>
    <Industry>Human Resources</Industry>
    <Revenue>10000000.0</Revenue>
    <Latitude>40.947112</Latitude>
    <Longitude>-74.246565</Longitude>
  </Statistics>
  <Statistics>
    <City>Costa Mesa</City>
    <State>CA</State>
    <Industry>Telecommunications</Industry>
    <Revenue>20400000.0</Revenue>
    <Latitude>33.647793</Latitude>
    <Longitude>-117.917667</Longitude>
  </Statistics>
  <Statistics>
    <City>Crowley</City>
    <State>TX</State>
    <Industry>Construction</Industry>
    <Revenue>2800000.0</Revenue>
    <Latitude>32.581398</Latitude>
    <Longitude>-97.370306</Longitude>
  </Statistics>
  <Statistics>
    <City>Addison</City>
    <State>IL</State>
    <Industry>IT Services</Industry>
    <Revenue>70000000.0</Revenue>
    <Latitude>41.933509</Latitude>
    <Longitude>-88.0054</Longitude>
  </Statistics>
  <Statistics>
    <City>Laguna Hills</City>
    <State>CA</State>
    <Industry>Telecommunications</Industry>
    <Revenue>4800000.0</Revenue>
    <Latitude>33.60028</Latitude>
    <Longitude>-117.70854</Longitude>
  </Statistics>
  <Statistics>
    <City>Novato</City>
    <State>CA</State>
    <Industry>Business Products &amp; Services</Industry>
    <Revenue>2500000.0</Revenue>
    <Latitude>38.061837</Latitude>
    <Longitude>-122.540408</Longitude>
  </Statistics>
  <Statistics>
    <City>Rockville Centre</City>
    <State>NY</State>
    <Industry>IT Services</Industry>
    <Revenue>20300000.0</Revenue>
    <Latitude>40.663745</Latitude>
    <Longitude>-73.638</Longitude>
  </Statistics>
  <Statistics>
    <City>Roswell</City>
    <State>GA</State>
    <Industry>IT Services</Industry>
    <Revenue>9500000.0</Revenue>
    <Latitude>34.021324</Latitude>
    <Longitude>-84.310408</Longitude>
  </Statistics>
  <Statistics>
    <City>Fulton</City>
    <State>MD</State>
    <Industry>Advertising &amp; Marketing</Industry>
    <Revenue>6700000.0</Revenue>
    <Latitude>39.150179</Latitude>
    <Longitude>-76.92999</Longitude>
  </Statistics>
  <Statistics>
    <City>Andrews</City>
    <State>SC</State>
    <Industry>Manufacturing</Industry>
    <Revenue>25100000.0</Revenue>
    <Latitude>33.452525</Latitude>
    <Longitude>-79.560438</Longitude>
  </Statistics>
  <Statistics>
    <City>Marlborough</City>
    <State>MA</State>
    <Industry>IT Services</Industry>
    <Revenue>15500000.0</Revenue>
    <Latitude>42.350861</Latitude>
    <Longitude>-71.543355</Longitude>
  </Statistics>
  <Statistics>
    <City>Fredericksburg</City>
    <State>VA</State>
    <Industry>Government Services</Industry>
    <Revenue>54400000.0</Revenue>
    <Latitude>38.248141</Latitude>
    <Longitude>-77.468068</Longitude>
  </Statistics>
  <Statistics>
    <City>Union City</City>
    <State>CA</State>
    <Industry>Retail</Industry>
    <Revenue>6200000.0</Revenue>
    <Latitude>37.589458</Latitude>
    <Longitude>-122.049702</Longitude>
  </Statistics>
  <Statistics>
    <City>Brandon</City>
    <State>MS</State>
    <Industry>Logistics &amp; Transportation</Industry>
    <Revenue>157700000.0</Revenue>
    <Latitude>32.303803</Latitude>
    <Longitude>-89.964029</Longitude>
  </Statistics>
  <Statistics>
    <City>Franklin</City>
    <State>WI</State>
    <Industry>Health</Industry>
    <Revenue>2000000.0</Revenue>
    <Latitude>42.901728</Latitude>
    <Longitude>-88.008582</Longitude>
  </Statistics>
  <Statistics>
    <City>Casselton</City>
    <State>ND</State>
    <Industry>Food &amp; Beverage</Industry>
    <Revenue>25300000.0</Revenue>
    <Latitude>46.899195</Latitude>
    <Longitude>-97.213821</Longitude>
  </Statistics>
  <Statistics>
    <City>Cleveland</City>
    <State>OH</State>
    <Industry>IT Services</Industry>
    <Revenue>7400000.0</Revenue>
    <Latitude>41.434177</Latitude>
    <Longitude>-81.804433</Longitude>
  </Statistics>
  <Statistics>
    <City>Laramie</City>
    <State>WY</State>
    <Industry>Computer Hardware</Industry>
    <Revenue>3400000.0</Revenue>
    <Latitude>41.312907</Latitude>
    <Longitude>-105.581146</Longitude>
  </Statistics>
  <Statistics>
    <City>Fort Collins</City>
    <State>CO</State>
    <Industry>Construction</Industry>
    <Revenue>13300000.0</Revenue>
    <Latitude>40.547294</Latitude>
    <Longitude>-105.107646</Longitude>
  </Statistics>
  <Statistics>
    <City>Westmont</City>
    <State>IL</State>
    <Industry>IT Services</Industry>
    <Revenue>2400000.0</Revenue>
    <Latitude>41.772848</Latitude>
    <Longitude>-87.975736</Longitude>
  </Statistics>
  <Statistics>
    <City>Piscataway</City>
    <State>NJ</State>
    <Industry>IT Services</Industry>
    <Revenue>6000000.0</Revenue>
    <Latitude>40.55152</Latitude>
    <Longitude>-74.458996</Longitude>
  </Statistics>
  <Statistics>
    <City>Redwood City</City>
    <State>CA</State>
    <Industry>Education</Industry>
    <Revenue>11000000.0</Revenue>
    <Latitude>37.533128</Latitude>
    <Longitude>-122.248564</Longitude>
  </Statistics>
  <Statistics>
    <City>Little Rock</City>
    <State>AR</State>
    <Industry>Advertising &amp; Marketing</Industry>
    <Revenue>8900000.0</Revenue>
    <Latitude>34.787076</Latitude>
    <Longitude>-92.422232</Longitude>
  </Statistics>
  <Statistics>
    <City>Cornelia</City>
    <State>GA</State>
    <Industry>Manufacturing</Industry>
    <Revenue>26100000.0</Revenue>
    <Latitude>34.520882</Latitude>
    <Longitude>-83.54527</Longitude>
  </Statistics>
  <Statistics>
    <City>Bedminster</City>
    <State>NJ</State>
    <Industry>Financial Services</Industry>
    <Revenue>190600000.0</Revenue>
    <Latitude>40.657109</Latitude>
    <Longitude>-74.643236</Longitude>
  </Statistics>
  <Statistics>
    <City>Braintree</City>
    <State>MA</State>
    <Industry>Software</Industry>
    <Revenue>3400000.0</Revenue>
    <Latitude>42.209284</Latitude>
    <Longitude>-70.996304</Longitude>
  </Statistics>
  <Statistics>
    <City>Paducah</City>
    <State>KY</State>
    <Industry>Consumer Products &amp; Services</Industry>
    <Revenue>3500000.0</Revenue>
    <Latitude>37.036833</Latitude>
    <Longitude>-88.593388</Longitude>
  </Statistics>
  <Statistics>
    <City>Castle Rock</City>
    <State>CO</State>
    <Industry>Security</Industry>
    <Revenue>2000000.0</Revenue>
    <Latitude>39.39256</Latitude>
    <Longitude>-104.860187</Longitude>
  </Statistics>
  <Statistics>
    <City>Ossining</City>
    <State>NY</State>
    <Industry>Consumer Products &amp; Services</Industry>
    <Revenue>3000000.0</Revenue>
    <Latitude>41.167344</Latitude>
    <Longitude>-73.853791</Longitude>
  </Statistics>
  <Statistics>
    <City>Owings</City>
    <State>MD</State>
    <Industry>Energy</Industry>
    <Revenue>21900000.0</Revenue>
    <Latitude>38.695507</Latitude>
    <Longitude>-76.606093</Longitude>
  </Statistics>
  <Statistics>
    <City>Federalsburg</City>
    <State>MD</State>
    <Industry>Food &amp; Beverage</Industry>
    <Revenue>3600000.0</Revenue>
    <Latitude>38.714681</Latitude>
    <Longitude>-75.775376</Longitude>
  </Statistics>
  <Statistics>
    <City>Fremont</City>
    <State>CA</State>
    <Industry>IT Services</Industry>
    <Revenue>148000000.0</Revenue>
    <Latitude>37.573458</Latitude>
    <Longitude>-122.046925</Longitude>
  </Statistics>
  <Statistics>
    <City>Hillsboro</City>
    <State>OR</State>
    <Industry>Manufacturing</Industry>
    <Revenue>5400000.0</Revenue>
    <Latitude>45.53868</Latitude>
    <Longitude>-122.963608</Longitude>
  </Statistics>
  <Statistics>
    <City>Reno</City>
    <State>NV</State>
    <Industry>Education</Industry>
    <Revenue>22400000.0</Revenue>
    <Latitude>39.524917</Latitude>
    <Longitude>-119.903065</Longitude>
  </Statistics>
  <Statistics>
    <City>Corolla</City>
    <State>NC</State>
    <Industry>Travel</Industry>
    <Revenue>2600000.0</Revenue>
    <Latitude>36.320646</Latitude>
    <Longitude>-75.813217</Longitude>
  </Statistics>
  <Statistics>
    <City>Rexburg</City>
    <State>ID</State>
    <Industry>Software</Industry>
    <Revenue>4100000.0</Revenue>
    <Latitude>43.809968</Latitude>
    <Longitude>-111.789022</Longitude>
  </Statistics>
  <Statistics>
    <City>Gallatin</City>
    <State>TN</State>
    <Industry>Construction</Industry>
    <Revenue>20300000.0</Revenue>
    <Latitude>36.383438</Latitude>
    <Longitude>-86.45116</Longitude>
  </Statistics>
  <Statistics>
    <City>Dedham</City>
    <State>MA</State>
    <Industry>Software</Industry>
    <Revenue>24500000.0</Revenue>
    <Latitude>42.243685</Latitude>
    <Longitude>-71.163741</Longitude>
  </Statistics>
  <Statistics>
    <City>Posen</City>
    <State>IL</State>
    <Industry>Construction</Industry>
    <Revenue>4300000.0</Revenue>
    <Latitude>41.62766</Latitude>
    <Longitude>-87.687213</Longitude>
  </Statistics>
  <Statistics>
    <City>New Haven</City>
    <State>CT</State>
    <Industry>Financial Services</Industry>
    <Revenue>44000000.0</Revenue>
    <Latitude>41.296284</Latitude>
    <Longitude>-72.937307</Longitude>
  </Statistics>
  <Statistics>
    <City>Hudson</City>
    <State>OH</State>
    <Industry>Construction</Industry>
    <Revenue>10600000.0</Revenue>
    <Latitude>41.245836</Latitude>
    <Longitude>-81.436659</Longitude>
  </Statistics>
  <Statistics>
    <City>Ithaca</City>
    <State>NY</State>
    <Industry>Energy</Industry>
    <Revenue>5400000.0</Revenue>
    <Latitude>42.443087</Latitude>
    <Longitude>-76.488707</Longitude>
  </Statistics>
  <Statistics>
    <City>Oakland</City>
    <State>CA</State>
    <Industry>Food &amp; Beverage</Industry>
    <Revenue>21300000.0</Revenue>
    <Latitude>37.758924</Latitude>
    <Longitude>-122.185335</Longitude>
  </Statistics>
  <Statistics>
    <City>Gulf Breeze</City>
    <State>FL</State>
    <Industry>Security</Industry>
    <Revenue>18700000.0</Revenue>
    <Latitude>30.3847</Latitude>
    <Longitude>-87.043875</Longitude>
  </Statistics>
  <Statistics>
    <City>Athens</City>
    <State>OH</State>
    <Industry>Energy</Industry>
    <Revenue>3700000.0</Revenue>
    <Latitude>39.317824</Latitude>
    <Longitude>-82.102011</Longitude>
  </Statistics>
  <Statistics>
    <City>El Segundo</City>
    <State>CA</State>
    <Industry>Government Services</Industry>
    <Revenue>6600000.0</Revenue>
    <Latitude>33.924275</Latitude>
    <Longitude>-118.411924</Longitude>
  </Statistics>
  <Statistics>
    <City>Garden City</City>
    <State>GA</State>
    <Industry>Logistics &amp; Transportation</Industry>
    <Revenue>8200000.0</Revenue>
    <Latitude>32.109245</Latitude>
    <Longitude>-81.168181</Longitude>
  </Statistics>
  <Statistics>
    <City>Radnor</City>
    <State>PA</State>
    <Industry>Software</Industry>
    <Revenue>119000000.0</Revenue>
    <Latitude>40.059554</Latitude>
    <Longitude>-75.40416</Longitude>
  </Statistics>
  <Statistics>
    <City>North Ridgeville</City>
    <State>OH</State>
    <Industry>Government Services</Industry>
    <Revenue>5300000.0</Revenue>
    <Latitude>41.396432</Latitude>
    <Longitude>-82.003323</Longitude>
  </Statistics>
  <Statistics>
    <City>Lexington</City>
    <State>KY</State>
    <Industry>Advertising &amp; Marketing</Industry>
    <Revenue>18600000.0</Revenue>
    <Latitude>37.984864</Latitude>
    <Longitude>-84.481588</Longitude>
  </Statistics>
  <Statistics>
    <City>Monticello</City>
    <State>MN</State>
    <Industry>Construction</Industry>
    <Revenue>18600000.0</Revenue>
    <Latitude>45.295557</Latitude>
    <Longitude>-93.802252</Longitude>
  </Statistics>
  <Statistics>
    <City>Mandeville</City>
    <State>LA</State>
    <Industry>Environmental Services</Industry>
    <Revenue>26300000.0</Revenue>
    <Latitude>30.386096</Latitude>
    <Longitude>-90.076846</Longitude>
  </Statistics>
  <Statistics>
    <City>Harrisburg</City>
    <State>PA</State>
    <Industry>Retail</Industry>
    <Revenue>2800000.0</Revenue>
    <Latitude>40.335208</Latitude>
    <Longitude>-76.791438</Longitude>
  </Statistics>
  <Statistics>
    <City>Middletown</City>
    <State>DE</State>
    <Industry>Advertising &amp; Marketing</Industry>
    <Revenue>6000000.0</Revenue>
    <Latitude>39.481535</Latitude>
    <Longitude>-75.683183</Longitude>
  </Statistics>
  <Statistics>
    <City>Spicewood</City>
    <State>TX</State>
    <Industry>Consumer Products &amp; Services</Industry>
    <Revenue>2500000.0</Revenue>
    <Latitude>30.389945</Latitude>
    <Longitude>-98.05392</Longitude>
  </Statistics>
  <Statistics>
    <City>Haymarket</City>
    <State>VA</State>
    <Industry>Construction</Industry>
    <Revenue>45800000.0</Revenue>
    <Latitude>38.876234</Latitude>
    <Longitude>-77.647485</Longitude>
  </Statistics>
  <Statistics>
    <City>Danville</City>
    <State>IL</State>
    <Industry>Logistics &amp; Transportation</Industry>
    <Revenue>11400000.0</Revenue>
    <Latitude>40.136976</Latitude>
    <Longitude>-87.621737</Longitude>
  </Statistics>
  <Statistics>
    <City>Griffin</City>
    <State>GA</State>
    <Industry>Environmental Services</Industry>
    <Revenue>2800000.0</Revenue>
    <Latitude>33.2549</Latitude>
    <Longitude>-84.272759</Longitude>
  </Statistics>
  <Statistics>
    <City>Winter Springs</City>
    <State>FL</State>
    <Industry>Business Products &amp; Services</Industry>
    <Revenue>8900000.0</Revenue>
    <Latitude>28.683097</Latitude>
    <Longitude>-81.281367</Longitude>
  </Statistics>
  <Statistics>
    <City>Loveland</City>
    <State>CO</State>
    <Industry>Advertising &amp; Marketing</Industry>
    <Revenue>3500000.0</Revenue>
    <Latitude>40.426239</Latitude>
    <Longitude>-105.089985</Longitude>
  </Statistics>
  <Statistics>
    <City>Horsham</City>
    <State>PA</State>
    <Industry>Business Products &amp; Services</Industry>
    <Revenue>2400000.0</Revenue>
    <Latitude>40.182057</Latitude>
    <Longitude>-75.147932</Longitude>
  </Statistics>
  <Statistics>
    <City>Haddonfield</City>
    <State>NJ</State>
    <Industry>Business Products &amp; Services</Industry>
    <Revenue>3700000.0</Revenue>
    <Latitude>39.895449</Latitude>
    <Longitude>-75.041726</Longitude>
  </Statistics>
  <Statistics>
    <City>Livingston</City>
    <State>NJ</State>
    <Industry>Health</Industry>
    <Revenue>5400000.0</Revenue>
    <Latitude>40.789633</Latitude>
    <Longitude>-74.3202</Longitude>
  </Statistics>
  <Statistics>
    <City>Mobile</City>
    <State>AL</State>
    <Industry>Engineering</Industry>
    <Revenue>39000000.0</Revenue>
    <Latitude>30.647431</Latitude>
    <Longitude>-88.229245</Longitude>
  </Statistics>
  <Statistics>
    <City>Chesapeake</City>
    <State>VA</State>
    <Industry>Engineering</Industry>
    <Revenue>9900000.0</Revenue>
    <Latitude>36.813963</Latitude>
    <Longitude>-76.240555</Longitude>
  </Statistics>
  <Statistics>
    <City>Redondo Beach</City>
    <State>CA</State>
    <Industry>Advertising &amp; Marketing</Industry>
    <Revenue>3200000.0</Revenue>
    <Latitude>33.870654</Latitude>
    <Longitude>-118.371459</Longitude>
  </Statistics>
  <Statistics>
    <City>Corvallis</City>
    <State>OR</State>
    <Industry>Media</Industry>
    <Revenue>3900000.0</Revenue>
    <Latitude>44.539281</Latitude>
    <Longitude>-123.279908</Longitude>
  </Statistics>
  <Statistics>
    <City>Cut Bank</City>
    <State>MT</State>
    <Industry>Energy</Industry>
    <Revenue>77500000.0</Revenue>
    <Latitude>48.660284</Latitude>
    <Longitude>-112.365354</Longitude>
  </Statistics>
  <Statistics>
    <City>Edina</City>
    <State>MN</State>
    <Industry>IT Services</Industry>
    <Revenue>4000000.0</Revenue>
    <Latitude>44.873716</Latitude>
    <Longitude>-93.332169</Longitude>
  </Statistics>
  <Statistics>
    <City>Livermore</City>
    <State>CA</State>
    <Industry>Health</Industry>
    <Revenue>5800000.0</Revenue>
    <Latitude>37.68299</Latitude>
    <Longitude>-121.762983</Longitude>
  </Statistics>
  <Statistics>
    <City>Wilmington</City>
    <State>DE</State>
    <Industry>IT Services</Industry>
    <Revenue>6500000.0</Revenue>
    <Latitude>39.757076</Latitude>
    <Longitude>-75.563503</Longitude>
  </Statistics>
  <Statistics>
    <City>Old Greenwich</City>
    <State>CT</State>
    <Industry>Energy</Industry>
    <Revenue>4900000000.0</Revenue>
    <Latitude>41.035437</Latitude>
    <Longitude>-73.567253</Longitude>
  </Statistics>
  <Statistics>
    <City>Portsmouth</City>
    <State>VA</State>
    <Industry>Construction</Industry>
    <Revenue>9100000.0</Revenue>
    <Latitude>36.813883</Latitude>
    <Longitude>-76.305188</Longitude>
  </Statistics>
  <Statistics>
    <City>Fayetteville</City>
    <State>NC</State>
    <Industry>Government Services</Industry>
    <Revenue>97600000.0</Revenue>
    <Latitude>35.058322</Latitude>
    <Longitude>-79.007985</Longitude>
  </Statistics>
  <Statistics>
    <City>Inglewood</City>
    <State>CA</State>
    <Industry>Business Products &amp; Services</Industry>
    <Revenue>4800000.0</Revenue>
    <Latitude>33.958304</Latitude>
    <Longitude>-118.32585</Longitude>
  </Statistics>
  <Statistics>
    <City>Portland</City>
    <State>ME</State>
    <Industry>Financial Services</Industry>
    <Revenue>100000000.0</Revenue>
    <Latitude>43.687568</Latitude>
    <Longitude>-70.2876</Longitude>
  </Statistics>
  <Statistics>
    <City>Waterbury</City>
    <State>CT</State>
    <Industry>Business Products &amp; Services</Industry>
    <Revenue>7500000.0</Revenue>
    <Latitude>41.567503</Latitude>
    <Longitude>-73.046821</Longitude>
  </Statistics>
  <Statistics>
    <City>Franklin</City>
    <State>TN</State>
    <Industry>Security</Industry>
    <Revenue>22900000.0</Revenue>
    <Latitude>35.932782</Latitude>
    <Longitude>-86.878833</Longitude>
  </Statistics>
  <Statistics>
    <City>Homewood</City>
    <State>AL</State>
    <Industry>IT Services</Industry>
    <Revenue>44900000.0</Revenue>
    <Latitude>33.469624</Latitude>
    <Longitude>-86.806738</Longitude>
  </Statistics>
  <Statistics>
    <City>West Hollywood</City>
    <State>CA</State>
    <Industry>Consumer Products &amp; Services</Industry>
    <Revenue>3000000.0</Revenue>
    <Latitude>34.090573</Latitude>
    <Longitude>-118.378753</Longitude>
  </Statistics>
  <Statistics>
    <City>Covington</City>
    <State>LA</State>
    <Industry>Advertising &amp; Marketing</Industry>
    <Revenue>5500000.0</Revenue>
    <Latitude>30.487606</Latitude>
    <Longitude>-90.095933</Longitude>
  </Statistics>
  <Statistics>
    <City>New London</City>
    <State>CT</State>
    <Industry>Human Resources</Industry>
    <Revenue>15000000.0</Revenue>
    <Latitude>41.350718</Latitude>
    <Longitude>-72.106245</Longitude>
  </Statistics>
  <Statistics>
    <City>Schiller Park</City>
    <State>IL</State>
    <Industry>Food &amp; Beverage</Industry>
    <Revenue>9800000.0</Revenue>
    <Latitude>41.956304</Latitude>
    <Longitude>-87.869179</Longitude>
  </Statistics>
  <Statistics>
    <City>South Bend</City>
    <State>IN</State>
    <Industry>Business Products &amp; Services</Industry>
    <Revenue>5900000.0</Revenue>
    <Latitude>41.729936</Latitude>
    <Longitude>-86.240694</Longitude>
  </Statistics>
  <Statistics>
    <City>Cheektowaga</City>
    <State>NY</State>
    <Industry>Manufacturing</Industry>
    <Revenue>2500000.0</Revenue>
    <Latitude>42.877467</Latitude>
    <Longitude>-78.741936</Longitude>
  </Statistics>
  <Statistics>
    <City>Bakersfield</City>
    <State>CA</State>
    <Industry>Construction</Industry>
    <Revenue>11800000.0</Revenue>
    <Latitude>35.297391</Latitude>
    <Longitude>-119.050936</Longitude>
  </Statistics>
  <Statistics>
    <City>Lansing</City>
    <State>MI</State>
    <Industry>IT Services</Industry>
    <Revenue>20300000.0</Revenue>
    <Latitude>42.733429</Latitude>
    <Longitude>-84.557142</Longitude>
  </Statistics>
  <Statistics>
    <City>Mount Pleasant</City>
    <State>SC</State>
    <Industry>Retail</Industry>
    <Revenue>3000000.0</Revenue>
    <Latitude>32.816211</Latitude>
    <Longitude>-79.852031</Longitude>
  </Statistics>
  <Statistics>
    <City>Cohoes</City>
    <State>NY</State>
    <Industry>Business Products &amp; Services</Industry>
    <Revenue>4100000.0</Revenue>
    <Latitude>42.775362</Latitude>
    <Longitude>-73.712356</Longitude>
  </Statistics>
  <Statistics>
    <City>Issaquah</City>
    <State>WA</State>
    <Industry>Business Products &amp; Services</Industry>
    <Revenue>5300000.0</Revenue>
    <Latitude>47.550911</Latitude>
    <Longitude>-122.033517</Longitude>
  </Statistics>
  <Statistics>
    <City>Idaho Falls</City>
    <State>ID</State>
    <Industry>Government Services</Industry>
    <Revenue>130500000.0</Revenue>
    <Latitude>43.473233</Latitude>
    <Longitude>-111.966052</Longitude>
  </Statistics>
  <Statistics>
    <City>Cold Spring</City>
    <State>NY</State>
    <Industry>Construction</Industry>
    <Revenue>16700000.0</Revenue>
    <Latitude>41.44142</Latitude>
    <Longitude>-73.933485</Longitude>
  </Statistics>
  <Statistics>
    <City>Laredo</City>
    <State>TX</State>
    <Industry>Travel</Industry>
    <Revenue>2200000.0</Revenue>
    <Latitude>27.556933</Latitude>
    <Longitude>-99.490653</Longitude>
  </Statistics>
  <Statistics>
    <City>Lafayette</City>
    <State>LA</State>
    <Industry>Energy</Industry>
    <Revenue>4100000.0</Revenue>
    <Latitude>30.158222</Latitude>
    <Longitude>-92.023579</Longitude>
  </Statistics>
  <Statistics>
    <City>Detroit</City>
    <State>MI</State>
